{"type":"FeatureCollection","features":[{"type":"Feature","geometry":{"type":"Point","coordinates":[-1.473049,53.322555]},"properties":{"category":"anti social behaviour","street":"On or near Chesterfield Road South","outcome":null,"month":"2026-04"}},{"type":"Feature","geometry":{"type":"Point","coordinates":[-1.338936,53.32186]},"properties":{"category":"anti social behaviour","street":"On or near Judd Close","outcome":null,"month":"2026-04"}},{"type":"Feature","geometry":{"type":"Point","coordinates":[-1.333088,53.428264]},"properties":{"category":"anti social behaviour","street":"On or near Wordsworth Drive","outcome":null,"month":"2026-04"}},{"type":"Feature","geometry":{"type":"Point","coordinates":[-1.32076,53.441615]},"properties":{"category":"anti social behaviour","street":"On or near Lady Oak Way","outcome":null,"month":"2026-04"}},{"type":"Feature","geometry":{"type":"Point","coordinates":[-1.320135,53.408119]},"properties":{"category":"anti social behaviour","street":"On or near Fairbank View","outcome":null,"month":"2026-04"}},{"type":"Feature","geometry":{"type":"Point","coordinates":[-1.31525,53.361053]},"properties":{"category":"anti social behaviour","street":"On or near Hilary Way","outcome":null,"month":"2026-04"}},{"type":"Feature","geometry":{"type":"Point","coordinates":[-1.46304,53.401117]},"properties":{"category":"anti social behaviour","street":"On or near Firshill Close","outcome":null,"month":"2026-04"}},{"type":"Feature","geometry":{"type":"Point","coordinates":[-1.487577,53.351787]},"properties":{"category":"anti social behaviour","street":"On or near Plymouth Road","outcome":null,"month":"2026-04"}},{"type":"Feature","geometry":{"type":"Point","coordinates":[-1.468196,53.340996]},"properties":{"category":"anti social behaviour","street":"On or near Haysden Lane","outcome":null,"month":"2026-04"}},{"type":"Feature","geometry":{"type":"Point","coordinates":[-1.468581,53.381809]},"properties":{"category":"anti social behaviour","street":"On or near Shopping Area","outcome":null,"month":"2026-04"}},{"type":"Feature","geometry":{"type":"Point","coordinates":[-1.476331,53.368475]},"properties":{"category":"anti social behaviour","street":"On or near Grosvenor Square","outcome":null,"month":"2026-04"}},{"type":"Feature","geometry":{"type":"Point","coordinates":[-1.476619,53.417303]},"properties":{"category":"anti social behaviour","street":"On or near Southey Place","outcome":null,"month":"2026-04"}},{"type":"Feature","geometry":{"type":"Point","coordinates":[-1.480577,53.418416]},"properties":{"category":"anti social behaviour","street":"On or near Southey Green Road","outcome":null,"month":"2026-04"}},{"type":"Feature","geometry":{"type":"Point","coordinates":[-1.488818,53.387414]},"properties":{"category":"anti social behaviour","street":"On or near Oxford Street","outcome":null,"month":"2026-04"}},{"type":"Feature","geometry":{"type":"Point","coordinates":[-1.482953,53.370131]},"properties":{"category":"anti social behaviour","street":"On or near Cemetery Road","outcome":null,"month":"2026-04"}},{"type":"Feature","geometry":{"type":"Point","coordinates":[-1.482953,53.370131]},"properties":{"category":"anti social behaviour","street":"On or near Cemetery Road","outcome":null,"month":"2026-04"}},{"type":"Feature","geometry":{"type":"Point","coordinates":[-1.487052,53.385474]},"properties":{"category":"anti social behaviour","street":"On or near St Stephen's Walk","outcome":null,"month":"2026-04"}},{"type":"Feature","geometry":{"type":"Point","coordinates":[-1.491403,53.415299]},"properties":{"category":"anti social behaviour","street":"On or near Lamb Road","outcome":null,"month":"2026-04"}},{"type":"Feature","geometry":{"type":"Point","coordinates":[-1.487545,53.422069]},"properties":{"category":"anti social behaviour","street":"On or near Palgrave Road","outcome":null,"month":"2026-04"}},{"type":"Feature","geometry":{"type":"Point","coordinates":[-1.492089,53.419571]},"properties":{"category":"anti social behaviour","street":"On or near Cookson Close","outcome":null,"month":"2026-04"}},{"type":"Feature","geometry":{"type":"Point","coordinates":[-1.537867,53.366302]},"properties":{"category":"anti social behaviour","street":"On or near Stumperlowe Lane","outcome":null,"month":"2026-04"}},{"type":"Feature","geometry":{"type":"Point","coordinates":[-1.49627,53.395545]},"properties":{"category":"anti social behaviour","street":"On or near King James Street","outcome":null,"month":"2026-04"}},{"type":"Feature","geometry":{"type":"Point","coordinates":[-1.336812,53.350451]},"properties":{"category":"anti social behaviour","street":"On or near Rothervale Close","outcome":null,"month":"2026-04"}},{"type":"Feature","geometry":{"type":"Point","coordinates":[-1.479731,53.360741]},"properties":{"category":"anti social behaviour","street":"On or near Southcroft Gardens","outcome":null,"month":"2026-04"}},{"type":"Feature","geometry":{"type":"Point","coordinates":[-1.34335,53.343377]},"properties":{"category":"anti social behaviour","street":"On or near Sothall Mews","outcome":null,"month":"2026-04"}},{"type":"Feature","geometry":{"type":"Point","coordinates":[-1.355677,53.340694]},"properties":{"category":"anti social behaviour","street":"On or near Purbeck Road","outcome":null,"month":"2026-04"}},{"type":"Feature","geometry":{"type":"Point","coordinates":[-1.365708,53.381305]},"properties":{"category":"anti social behaviour","street":"On or near Brooks Drive","outcome":null,"month":"2026-04"}},{"type":"Feature","geometry":{"type":"Point","coordinates":[-1.541201,53.324463]},"properties":{"category":"anti social behaviour","street":"On or near Church Lane","outcome":null,"month":"2026-04"}},{"type":"Feature","geometry":{"type":"Point","coordinates":[-1.516384,53.327152]},"properties":{"category":"anti social behaviour","street":"On or near Ladies Spring Drive","outcome":null,"month":"2026-04"}},{"type":"Feature","geometry":{"type":"Point","coordinates":[-1.507955,53.385339]},"properties":{"category":"anti social behaviour","street":"On or near Supermarket","outcome":null,"month":"2026-04"}},{"type":"Feature","geometry":{"type":"Point","coordinates":[-1.498682,53.36813]},"properties":{"category":"anti social behaviour","street":"On or near Neill Road","outcome":null,"month":"2026-04"}},{"type":"Feature","geometry":{"type":"Point","coordinates":[-1.493142,53.368997]},"properties":{"category":"anti social behaviour","street":"On or near Snuff Mill Lane","outcome":null,"month":"2026-04"}},{"type":"Feature","geometry":{"type":"Point","coordinates":[-1.491403,53.415299]},"properties":{"category":"anti social behaviour","street":"On or near Lamb Road","outcome":null,"month":"2026-04"}},{"type":"Feature","geometry":{"type":"Point","coordinates":[-1.486498,53.387836]},"properties":{"category":"anti social behaviour","street":"On or near Martin Street","outcome":null,"month":"2026-04"}},{"type":"Feature","geometry":{"type":"Point","coordinates":[-1.48439,53.419188]},"properties":{"category":"anti social behaviour","street":"On or near Dryden Way","outcome":null,"month":"2026-04"}},{"type":"Feature","geometry":{"type":"Point","coordinates":[-1.48439,53.419188]},"properties":{"category":"anti social behaviour","street":"On or near Dryden Way","outcome":null,"month":"2026-04"}},{"type":"Feature","geometry":{"type":"Point","coordinates":[-1.482083,53.424562]},"properties":{"category":"anti social behaviour","street":"On or near Lytton Drive","outcome":null,"month":"2026-04"}},{"type":"Feature","geometry":{"type":"Point","coordinates":[-1.478602,53.347397]},"properties":{"category":"anti social behaviour","street":"On or near Underwood Road","outcome":null,"month":"2026-04"}},{"type":"Feature","geometry":{"type":"Point","coordinates":[-1.47691,53.381331]},"properties":{"category":"anti social behaviour","street":"On or near Parking Area","outcome":null,"month":"2026-04"}},{"type":"Feature","geometry":{"type":"Point","coordinates":[-1.471654,53.422099]},"properties":{"category":"anti social behaviour","street":"On or near Adrian Crescent","outcome":null,"month":"2026-04"}},{"type":"Feature","geometry":{"type":"Point","coordinates":[-1.46205,53.3854]},"properties":{"category":"anti social behaviour","street":"On or near Blonk Street","outcome":null,"month":"2026-04"}},{"type":"Feature","geometry":{"type":"Point","coordinates":[-1.449343,53.348326]},"properties":{"category":"anti social behaviour","street":"On or near Gaunt Place","outcome":null,"month":"2026-04"}},{"type":"Feature","geometry":{"type":"Point","coordinates":[-1.445744,53.377937]},"properties":{"category":"anti social behaviour","street":"On or near Bassett Place","outcome":null,"month":"2026-04"}},{"type":"Feature","geometry":{"type":"Point","coordinates":[-1.431816,53.367301]},"properties":{"category":"anti social behaviour","street":"On or near Cary Grove","outcome":null,"month":"2026-04"}},{"type":"Feature","geometry":{"type":"Point","coordinates":[-1.347591,53.436497]},"properties":{"category":"anti social behaviour","street":"On or near Denman Street","outcome":null,"month":"2026-04"}},{"type":"Feature","geometry":{"type":"Point","coordinates":[-1.34355,53.427189]},"properties":{"category":"anti social behaviour","street":"On or near Johnson Court","outcome":null,"month":"2026-04"}},{"type":"Feature","geometry":{"type":"Point","coordinates":[-1.330086,53.339645]},"properties":{"category":"anti social behaviour","street":"On or near Meadow Gate Avenue","outcome":null,"month":"2026-04"}},{"type":"Feature","geometry":{"type":"Point","coordinates":[-1.301758,53.450089]},"properties":{"category":"anti social behaviour","street":"On or near Fullerton Crescent","outcome":null,"month":"2026-04"}},{"type":"Feature","geometry":{"type":"Point","coordinates":[-1.365151,53.340915]},"properties":{"category":"anti social behaviour","street":"On or near Lundwood Drive","outcome":null,"month":"2026-04"}},{"type":"Feature","geometry":{"type":"Point","coordinates":[-1.371558,53.342324]},"properties":{"category":"anti social behaviour","street":"On or near Stoneacre Close","outcome":null,"month":"2026-04"}},{"type":"Feature","geometry":{"type":"Point","coordinates":[-1.370608,53.408917]},"properties":{"category":"anti social behaviour","street":"On or near Brinsford Road","outcome":null,"month":"2026-04"}},{"type":"Feature","geometry":{"type":"Point","coordinates":[-1.379938,53.346548]},"properties":{"category":"anti social behaviour","street":"On or near Cotleigh Road","outcome":null,"month":"2026-04"}},{"type":"Feature","geometry":{"type":"Point","coordinates":[-1.390972,53.343854]},"properties":{"category":"anti social behaviour","street":"On or near Weakland Way","outcome":null,"month":"2026-04"}},{"type":"Feature","geometry":{"type":"Point","coordinates":[-1.399816,53.37402]},"properties":{"category":"anti social behaviour","street":"On or near Richmond Park Croft","outcome":null,"month":"2026-04"}},{"type":"Feature","geometry":{"type":"Point","coordinates":[-1.403158,53.447861]},"properties":{"category":"anti social behaviour","street":"On or near Fox Close","outcome":null,"month":"2026-04"}},{"type":"Feature","geometry":{"type":"Point","coordinates":[-1.479653,53.379969]},"properties":{"category":"anti social behaviour","street":"On or near Nightclub","outcome":null,"month":"2026-04"}},{"type":"Feature","geometry":{"type":"Point","coordinates":[-1.498587,53.406961]},"properties":{"category":"anti social behaviour","street":"On or near Broughton Road","outcome":null,"month":"2026-04"}},{"type":"Feature","geometry":{"type":"Point","coordinates":[-1.48154,53.420892]},"properties":{"category":"anti social behaviour","street":"On or near Kyle Crescent","outcome":null,"month":"2026-04"}},{"type":"Feature","geometry":{"type":"Point","coordinates":[-1.481413,53.384362]},"properties":{"category":"anti social behaviour","street":"On or near Radford Street","outcome":null,"month":"2026-04"}},{"type":"Feature","geometry":{"type":"Point","coordinates":[-1.485128,53.374248]},"properties":{"category":"anti social behaviour","street":"On or near Broomhall Place","outcome":null,"month":"2026-04"}},{"type":"Feature","geometry":{"type":"Point","coordinates":[-1.50313,53.351403]},"properties":{"category":"anti social behaviour","street":"On or near Oliver Road","outcome":null,"month":"2026-04"}},{"type":"Feature","geometry":{"type":"Point","coordinates":[-1.511607,53.412786]},"properties":{"category":"anti social behaviour","street":"On or near Marlcliffe Road","outcome":null,"month":"2026-04"}},{"type":"Feature","geometry":{"type":"Point","coordinates":[-1.506901,53.387823]},"properties":{"category":"anti social behaviour","street":"On or near Loxley View Road","outcome":null,"month":"2026-04"}},{"type":"Feature","geometry":{"type":"Point","coordinates":[-1.522033,53.410113]},"properties":{"category":"anti social behaviour","street":"On or near Luke Lane","outcome":null,"month":"2026-04"}},{"type":"Feature","geometry":{"type":"Point","coordinates":[-1.534308,53.353632]},"properties":{"category":"anti social behaviour","street":"On or near Folkwood Grove","outcome":null,"month":"2026-04"}},{"type":"Feature","geometry":{"type":"Point","coordinates":[-1.534891,53.436689]},"properties":{"category":"anti social behaviour","street":"On or near River View Road","outcome":null,"month":"2026-04"}},{"type":"Feature","geometry":{"type":"Point","coordinates":[-1.539237,53.32708]},"properties":{"category":"anti social behaviour","street":"On or near High Street","outcome":null,"month":"2026-04"}},{"type":"Feature","geometry":{"type":"Point","coordinates":[-1.543217,53.432326]},"properties":{"category":"anti social behaviour","street":"On or near Naylor Grove","outcome":null,"month":"2026-04"}},{"type":"Feature","geometry":{"type":"Point","coordinates":[-1.510871,53.403515]},"properties":{"category":"anti social behaviour","street":"On or near Norris Road","outcome":null,"month":"2026-04"}},{"type":"Feature","geometry":{"type":"Point","coordinates":[-1.50724,53.364714]},"properties":{"category":"anti social behaviour","street":"On or near Supermarket","outcome":null,"month":"2026-04"}},{"type":"Feature","geometry":{"type":"Point","coordinates":[-1.501621,53.415108]},"properties":{"category":"anti social behaviour","street":"On or near Petrol Station","outcome":null,"month":"2026-04"}},{"type":"Feature","geometry":{"type":"Point","coordinates":[-1.468182,53.383162]},"properties":{"category":"anti social behaviour","street":"On or near York Street","outcome":null,"month":"2026-04"}},{"type":"Feature","geometry":{"type":"Point","coordinates":[-1.46205,53.3854]},"properties":{"category":"anti social behaviour","street":"On or near Blonk Street","outcome":null,"month":"2026-04"}},{"type":"Feature","geometry":{"type":"Point","coordinates":[-1.459823,53.379673]},"properties":{"category":"anti social behaviour","street":"On or near South Street","outcome":null,"month":"2026-04"}},{"type":"Feature","geometry":{"type":"Point","coordinates":[-1.457193,53.389639]},"properties":{"category":"anti social behaviour","street":"On or near Supermarket","outcome":null,"month":"2026-04"}},{"type":"Feature","geometry":{"type":"Point","coordinates":[-1.453308,53.355455]},"properties":{"category":"anti social behaviour","street":"On or near Callow Road","outcome":null,"month":"2026-04"}},{"type":"Feature","geometry":{"type":"Point","coordinates":[-1.449308,53.356839]},"properties":{"category":"anti social behaviour","street":"On or near Newfield Green Road","outcome":null,"month":"2026-04"}},{"type":"Feature","geometry":{"type":"Point","coordinates":[-1.357183,53.344307]},"properties":{"category":"anti social behaviour","street":"On or near Shopping Area","outcome":null,"month":"2026-04"}},{"type":"Feature","geometry":{"type":"Point","coordinates":[-1.34731,53.343722]},"properties":{"category":"anti social behaviour","street":"On or near Aster Close","outcome":null,"month":"2026-04"}},{"type":"Feature","geometry":{"type":"Point","coordinates":[-1.341689,53.426802]},"properties":{"category":"anti social behaviour","street":"On or near Badsley Street South","outcome":null,"month":"2026-04"}},{"type":"Feature","geometry":{"type":"Point","coordinates":[-1.330086,53.339645]},"properties":{"category":"anti social behaviour","street":"On or near Meadow Gate Avenue","outcome":null,"month":"2026-04"}},{"type":"Feature","geometry":{"type":"Point","coordinates":[-1.315451,53.368182]},"properties":{"category":"anti social behaviour","street":"On or near Parking Area","outcome":null,"month":"2026-04"}},{"type":"Feature","geometry":{"type":"Point","coordinates":[-1.31195,53.364414]},"properties":{"category":"anti social behaviour","street":"On or near Millstone Drive","outcome":null,"month":"2026-04"}},{"type":"Feature","geometry":{"type":"Point","coordinates":[-1.304366,53.331803]},"properties":{"category":"anti social behaviour","street":"On or near Aldred Close","outcome":null,"month":"2026-04"}},{"type":"Feature","geometry":{"type":"Point","coordinates":[-1.390761,53.37446]},"properties":{"category":"anti social behaviour","street":"On or near Hall Court","outcome":null,"month":"2026-04"}},{"type":"Feature","geometry":{"type":"Point","coordinates":[-1.39573,53.361074]},"properties":{"category":"anti social behaviour","street":"On or near Stradbroke Drive","outcome":null,"month":"2026-04"}},{"type":"Feature","geometry":{"type":"Point","coordinates":[-1.399695,53.412527]},"properties":{"category":"anti social behaviour","street":"On or near Siemens Close","outcome":null,"month":"2026-04"}},{"type":"Feature","geometry":{"type":"Point","coordinates":[-1.405933,53.361742]},"properties":{"category":"anti social behaviour","street":"On or near Supermarket","outcome":null,"month":"2026-04"}},{"type":"Feature","geometry":{"type":"Point","coordinates":[-1.40888,53.406551]},"properties":{"category":"anti social behaviour","street":"On or near Park/open Space","outcome":null,"month":"2026-04"}},{"type":"Feature","geometry":{"type":"Point","coordinates":[-1.419223,53.346215]},"properties":{"category":"anti social behaviour","street":"On or near Lister Way","outcome":null,"month":"2026-04"}},{"type":"Feature","geometry":{"type":"Point","coordinates":[-1.422159,53.412324]},"properties":{"category":"anti social behaviour","street":"On or near Lincoln Street","outcome":null,"month":"2026-04"}},{"type":"Feature","geometry":{"type":"Point","coordinates":[-1.434256,53.344148]},"properties":{"category":"anti social behaviour","street":"On or near Morland Close","outcome":null,"month":"2026-04"}},{"type":"Feature","geometry":{"type":"Point","coordinates":[-1.436204,53.359303]},"properties":{"category":"anti social behaviour","street":"On or near Atherton Close","outcome":null,"month":"2026-04"}},{"type":"Feature","geometry":{"type":"Point","coordinates":[-1.442354,53.413121]},"properties":{"category":"anti social behaviour","street":"On or near Hindewood Close","outcome":null,"month":"2026-04"}},{"type":"Feature","geometry":{"type":"Point","coordinates":[-1.48251,53.389382]},"properties":{"category":"anti social behaviour","street":"On or near Supermarket","outcome":null,"month":"2026-04"}},{"type":"Feature","geometry":{"type":"Point","coordinates":[-1.487202,53.428108]},"properties":{"category":"anti social behaviour","street":"On or near Supermarket","outcome":null,"month":"2026-04"}},{"type":"Feature","geometry":{"type":"Point","coordinates":[-1.487052,53.385474]},"properties":{"category":"anti social behaviour","street":"On or near St Stephen's Walk","outcome":null,"month":"2026-04"}},{"type":"Feature","geometry":{"type":"Point","coordinates":[-1.507955,53.385339]},"properties":{"category":"anti social behaviour","street":"On or near Supermarket","outcome":null,"month":"2026-04"}},{"type":"Feature","geometry":{"type":"Point","coordinates":[-1.490964,53.399153]},"properties":{"category":"anti social behaviour","street":"On or near Cuthbert Bank Road","outcome":null,"month":"2026-04"}},{"type":"Feature","geometry":{"type":"Point","coordinates":[-1.494365,53.401523]},"properties":{"category":"anti social behaviour","street":"On or near Petrol Station","outcome":null,"month":"2026-04"}},{"type":"Feature","geometry":{"type":"Point","coordinates":[-1.479608,53.360957]},"properties":{"category":"anti social behaviour","street":"On or near Frederick Road","outcome":null,"month":"2026-04"}},{"type":"Feature","geometry":{"type":"Point","coordinates":[-1.500273,53.426105]},"properties":{"category":"anti social behaviour","street":"On or near Fox Hill Road","outcome":null,"month":"2026-04"}},{"type":"Feature","geometry":{"type":"Point","coordinates":[-1.503018,53.404048]},"properties":{"category":"anti social behaviour","street":"On or near Shopping Area","outcome":null,"month":"2026-04"}},{"type":"Feature","geometry":{"type":"Point","coordinates":[-1.504063,53.335739]},"properties":{"category":"anti social behaviour","street":"On or near Folds Drive","outcome":null,"month":"2026-04"}},{"type":"Feature","geometry":{"type":"Point","coordinates":[-1.50644,53.405582]},"properties":{"category":"anti social behaviour","street":"On or near Dykes Hall Gardens","outcome":null,"month":"2026-04"}},{"type":"Feature","geometry":{"type":"Point","coordinates":[-1.503992,53.379388]},"properties":{"category":"anti social behaviour","street":"On or near Taptonville Court","outcome":null,"month":"2026-04"}},{"type":"Feature","geometry":{"type":"Point","coordinates":[-1.498188,53.321935]},"properties":{"category":"anti social behaviour","street":"On or near Edmund Drive","outcome":null,"month":"2026-04"}},{"type":"Feature","geometry":{"type":"Point","coordinates":[-1.490216,53.387465]},"properties":{"category":"anti social behaviour","street":"On or near Albion Street","outcome":null,"month":"2026-04"}},{"type":"Feature","geometry":{"type":"Point","coordinates":[-1.488175,53.394665]},"properties":{"category":"anti social behaviour","street":"On or near Wood Street","outcome":null,"month":"2026-04"}},{"type":"Feature","geometry":{"type":"Point","coordinates":[-1.476619,53.417303]},"properties":{"category":"anti social behaviour","street":"On or near Southey Place","outcome":null,"month":"2026-04"}},{"type":"Feature","geometry":{"type":"Point","coordinates":[-1.475662,53.321308]},"properties":{"category":"anti social behaviour","street":"On or near Lowedges Place","outcome":null,"month":"2026-04"}},{"type":"Feature","geometry":{"type":"Point","coordinates":[-1.473553,53.418233]},"properties":{"category":"anti social behaviour","street":"On or near Southey Hall Drive","outcome":null,"month":"2026-04"}},{"type":"Feature","geometry":{"type":"Point","coordinates":[-1.473369,53.405109]},"properties":{"category":"anti social behaviour","street":"On or near Standish Way","outcome":null,"month":"2026-04"}},{"type":"Feature","geometry":{"type":"Point","coordinates":[-1.470577,53.379191]},"properties":{"category":"anti social behaviour","street":"On or near Pinstone Street","outcome":null,"month":"2026-04"}},{"type":"Feature","geometry":{"type":"Point","coordinates":[-1.468062,53.378326]},"properties":{"category":"anti social behaviour","street":"On or near Further/higher Educational Building","outcome":null,"month":"2026-04"}},{"type":"Feature","geometry":{"type":"Point","coordinates":[-1.442843,53.358391]},"properties":{"category":"anti social behaviour","street":"On or near Arbourthorne Road","outcome":null,"month":"2026-04"}},{"type":"Feature","geometry":{"type":"Point","coordinates":[-1.438259,53.433892]},"properties":{"category":"anti social behaviour","street":"On or near Woolley Wood Road","outcome":null,"month":"2026-04"}},{"type":"Feature","geometry":{"type":"Point","coordinates":[-1.436748,53.370488]},"properties":{"category":"anti social behaviour","street":"On or near Harwich Road","outcome":null,"month":"2026-04"}},{"type":"Feature","geometry":{"type":"Point","coordinates":[-1.428083,53.3666]},"properties":{"category":"anti social behaviour","street":"On or near Bassledene Road","outcome":null,"month":"2026-04"}},{"type":"Feature","geometry":{"type":"Point","coordinates":[-1.425833,53.345141]},"properties":{"category":"anti social behaviour","street":"On or near Supermarket","outcome":null,"month":"2026-04"}},{"type":"Feature","geometry":{"type":"Point","coordinates":[-1.412492,53.370389]},"properties":{"category":"anti social behaviour","street":"On or near Castlebeck Avenue","outcome":null,"month":"2026-04"}},{"type":"Feature","geometry":{"type":"Point","coordinates":[-1.408308,53.35453]},"properties":{"category":"anti social behaviour","street":"On or near Wadsworth Road","outcome":null,"month":"2026-04"}},{"type":"Feature","geometry":{"type":"Point","coordinates":[-1.406736,53.414738]},"properties":{"category":"anti social behaviour","street":"On or near Parking Area","outcome":null,"month":"2026-04"}},{"type":"Feature","geometry":{"type":"Point","coordinates":[-1.405601,53.349276]},"properties":{"category":"anti social behaviour","street":"On or near Brushfield Grove","outcome":null,"month":"2026-04"}},{"type":"Feature","geometry":{"type":"Point","coordinates":[-1.402837,53.348247]},"properties":{"category":"anti social behaviour","street":"On or near Churchdale Road","outcome":null,"month":"2026-04"}},{"type":"Feature","geometry":{"type":"Point","coordinates":[-1.401452,53.346316]},"properties":{"category":"anti social behaviour","street":"On or near Brackenfield Grove","outcome":null,"month":"2026-04"}},{"type":"Feature","geometry":{"type":"Point","coordinates":[-1.392714,53.341751]},"properties":{"category":"anti social behaviour","street":"On or near Foxfield Close","outcome":null,"month":"2026-04"}},{"type":"Feature","geometry":{"type":"Point","coordinates":[-1.391804,53.341324]},"properties":{"category":"anti social behaviour","street":"On or near Birley Wood Drive","outcome":null,"month":"2026-04"}},{"type":"Feature","geometry":{"type":"Point","coordinates":[-1.389114,53.453849]},"properties":{"category":"anti social behaviour","street":"On or near Lapwater Road","outcome":null,"month":"2026-04"}},{"type":"Feature","geometry":{"type":"Point","coordinates":[-1.38232,53.455018]},"properties":{"category":"anti social behaviour","street":"On or near Whitehall Road","outcome":null,"month":"2026-04"}},{"type":"Feature","geometry":{"type":"Point","coordinates":[-1.382421,53.43252]},"properties":{"category":"anti social behaviour","street":"On or near Wilton Court","outcome":null,"month":"2026-04"}},{"type":"Feature","geometry":{"type":"Point","coordinates":[-1.379159,53.344342]},"properties":{"category":"anti social behaviour","street":"On or near Cotleigh Place","outcome":null,"month":"2026-04"}},{"type":"Feature","geometry":{"type":"Point","coordinates":[-1.3691,53.382689]},"properties":{"category":"anti social behaviour","street":"On or near Highfield Lane","outcome":null,"month":"2026-04"}},{"type":"Feature","geometry":{"type":"Point","coordinates":[-1.50926,53.390581]},"properties":{"category":"anti social behaviour","street":"On or near Sports/recreation Area","outcome":null,"month":"2026-04"}},{"type":"Feature","geometry":{"type":"Point","coordinates":[-1.529938,53.393111]},"properties":{"category":"anti social behaviour","street":"On or near Deer Park View","outcome":null,"month":"2026-04"}},{"type":"Feature","geometry":{"type":"Point","coordinates":[-1.509589,53.410377]},"properties":{"category":"anti social behaviour","street":"On or near Wadsley Lane","outcome":null,"month":"2026-04"}},{"type":"Feature","geometry":{"type":"Point","coordinates":[-1.301758,53.450089]},"properties":{"category":"anti social behaviour","street":"On or near Fullerton Crescent","outcome":null,"month":"2026-04"}},{"type":"Feature","geometry":{"type":"Point","coordinates":[-1.329415,53.337394]},"properties":{"category":"anti social behaviour","street":"On or near Farmoor Gardens","outcome":null,"month":"2026-04"}},{"type":"Feature","geometry":{"type":"Point","coordinates":[-1.348387,53.335162]},"properties":{"category":"anti social behaviour","street":"On or near Sandy Acres Drive","outcome":null,"month":"2026-04"}},{"type":"Feature","geometry":{"type":"Point","coordinates":[-1.348962,53.435453]},"properties":{"category":"anti social behaviour","street":"On or near Parking Area","outcome":null,"month":"2026-04"}},{"type":"Feature","geometry":{"type":"Point","coordinates":[-1.359768,53.394469]},"properties":{"category":"anti social behaviour","street":"On or near New Street","outcome":null,"month":"2026-04"}},{"type":"Feature","geometry":{"type":"Point","coordinates":[-1.390761,53.37446]},"properties":{"category":"anti social behaviour","street":"On or near Hall Court","outcome":null,"month":"2026-04"}},{"type":"Feature","geometry":{"type":"Point","coordinates":[-1.409367,53.346401]},"properties":{"category":"anti social behaviour","street":"On or near Kildonan Grove","outcome":null,"month":"2026-04"}},{"type":"Feature","geometry":{"type":"Point","coordinates":[-1.572991,53.326837]},"properties":{"category":"anti social behaviour","street":"On or near A625","outcome":null,"month":"2026-04"}},{"type":"Feature","geometry":{"type":"Point","coordinates":[-1.479283,53.459111]},"properties":{"category":"anti social behaviour","street":"On or near Bevan Way","outcome":null,"month":"2026-04"}},{"type":"Feature","geometry":{"type":"Point","coordinates":[-1.476741,53.374211]},"properties":{"category":"anti social behaviour","street":"On or near Young Street","outcome":null,"month":"2026-04"}},{"type":"Feature","geometry":{"type":"Point","coordinates":[-1.476044,53.374667]},"properties":{"category":"anti social behaviour","street":"On or near Bishop Street","outcome":null,"month":"2026-04"}},{"type":"Feature","geometry":{"type":"Point","coordinates":[-1.4676,53.400948]},"properties":{"category":"anti social behaviour","street":"On or near Shirecliffe Lane","outcome":null,"month":"2026-04"}},{"type":"Feature","geometry":{"type":"Point","coordinates":[-1.461628,53.420085]},"properties":{"category":"anti social behaviour","street":"On or near Crowland Road","outcome":null,"month":"2026-04"}},{"type":"Feature","geometry":{"type":"Point","coordinates":[-1.455673,53.386764]},"properties":{"category":"anti social behaviour","street":"On or near Blast Lane","outcome":null,"month":"2026-04"}},{"type":"Feature","geometry":{"type":"Point","coordinates":[-1.453844,53.421596]},"properties":{"category":"anti social behaviour","street":"On or near Etwall Way","outcome":null,"month":"2026-04"}},{"type":"Feature","geometry":{"type":"Point","coordinates":[-1.451555,53.399563]},"properties":{"category":"anti social behaviour","street":"On or near Carwood Grove","outcome":null,"month":"2026-04"}},{"type":"Feature","geometry":{"type":"Point","coordinates":[-1.451257,53.425054]},"properties":{"category":"anti social behaviour","street":"On or near Homestead Road","outcome":null,"month":"2026-04"}},{"type":"Feature","geometry":{"type":"Point","coordinates":[-1.447502,53.436128]},"properties":{"category":"anti social behaviour","street":"On or near Westnall Terrace","outcome":null,"month":"2026-04"}},{"type":"Feature","geometry":{"type":"Point","coordinates":[-1.429278,53.409877]},"properties":{"category":"anti social behaviour","street":"On or near Holywell Heights","outcome":null,"month":"2026-04"}},{"type":"Feature","geometry":{"type":"Point","coordinates":[-1.4214,53.342981]},"properties":{"category":"anti social behaviour","street":"On or near Supermarket","outcome":null,"month":"2026-04"}},{"type":"Feature","geometry":{"type":"Point","coordinates":[-1.417889,53.347663]},"properties":{"category":"anti social behaviour","street":"On or near Supermarket","outcome":null,"month":"2026-04"}},{"type":"Feature","geometry":{"type":"Point","coordinates":[-1.397721,53.447924]},"properties":{"category":"anti social behaviour","street":"On or near Shearman Avenue","outcome":null,"month":"2026-04"}},{"type":"Feature","geometry":{"type":"Point","coordinates":[-1.391093,53.443944]},"properties":{"category":"anti social behaviour","street":"On or near Ox Close Avenue","outcome":null,"month":"2026-04"}},{"type":"Feature","geometry":{"type":"Point","coordinates":[-1.373246,53.454611]},"properties":{"category":"anti social behaviour","street":"On or near Coach Road","outcome":null,"month":"2026-04"}},{"type":"Feature","geometry":{"type":"Point","coordinates":[-1.362513,53.347553]},"properties":{"category":"anti social behaviour","street":"On or near Delves Avenue","outcome":null,"month":"2026-04"}},{"type":"Feature","geometry":{"type":"Point","coordinates":[-1.339594,53.451293]},"properties":{"category":"anti social behaviour","street":"On or near Aldwarke Road","outcome":null,"month":"2026-04"}},{"type":"Feature","geometry":{"type":"Point","coordinates":[-1.325473,53.420644]},"properties":{"category":"anti social behaviour","street":"On or near Herringthorpe Avenue","outcome":null,"month":"2026-04"}},{"type":"Feature","geometry":{"type":"Point","coordinates":[-1.330086,53.339645]},"properties":{"category":"anti social behaviour","street":"On or near Meadow Gate Avenue","outcome":null,"month":"2026-04"}},{"type":"Feature","geometry":{"type":"Point","coordinates":[-1.432443,53.401497]},"properties":{"category":"anti social behaviour","street":"On or near Fell Street","outcome":null,"month":"2026-04"}},{"type":"Feature","geometry":{"type":"Point","coordinates":[-1.443302,53.417673]},"properties":{"category":"anti social behaviour","street":"On or near Windmill Lane","outcome":null,"month":"2026-04"}},{"type":"Feature","geometry":{"type":"Point","coordinates":[-1.457356,53.40812]},"properties":{"category":"anti social behaviour","street":"On or near Smilter Lane","outcome":null,"month":"2026-04"}},{"type":"Feature","geometry":{"type":"Point","coordinates":[-1.459191,53.391589]},"properties":{"category":"anti social behaviour","street":"On or near Spital Lane","outcome":null,"month":"2026-04"}},{"type":"Feature","geometry":{"type":"Point","coordinates":[-1.470829,53.332492]},"properties":{"category":"anti social behaviour","street":"On or near Sports/recreation Area","outcome":null,"month":"2026-04"}},{"type":"Feature","geometry":{"type":"Point","coordinates":[-1.328604,53.362297]},"properties":{"category":"anti social behaviour","street":"On or near Park Hill","outcome":null,"month":"2026-04"}},{"type":"Feature","geometry":{"type":"Point","coordinates":[-1.452424,53.406812]},"properties":{"category":"anti social behaviour","street":"On or near Skinnerthorpe Road","outcome":null,"month":"2026-04"}},{"type":"Feature","geometry":{"type":"Point","coordinates":[-1.375104,53.304239]},"properties":{"category":"anti social behaviour","street":"On or near Chesterfield Road","outcome":null,"month":"2026-04"}},{"type":"Feature","geometry":{"type":"Point","coordinates":[-1.348094,53.35045]},"properties":{"category":"anti social behaviour","street":"On or near Woodhouse Court","outcome":null,"month":"2026-04"}},{"type":"Feature","geometry":{"type":"Point","coordinates":[-1.350894,53.329288]},"properties":{"category":"anti social behaviour","street":"On or near Birchwood Way","outcome":null,"month":"2026-04"}},{"type":"Feature","geometry":{"type":"Point","coordinates":[-1.476015,53.303738]},"properties":{"category":"anti social behaviour","street":"On or near Petrol Station","outcome":null,"month":"2026-04"}},{"type":"Feature","geometry":{"type":"Point","coordinates":[-1.513529,53.365621]},"properties":{"category":"anti social behaviour","street":"On or near Bingham Park Crescent","outcome":null,"month":"2026-04"}},{"type":"Feature","geometry":{"type":"Point","coordinates":[-1.368796,53.407299]},"properties":{"category":"anti social behaviour","street":"On or near Letard Drive","outcome":null,"month":"2026-04"}},{"type":"Feature","geometry":{"type":"Point","coordinates":[-1.391129,53.442443]},"properties":{"category":"anti social behaviour","street":"On or near Hutton Road","outcome":null,"month":"2026-04"}},{"type":"Feature","geometry":{"type":"Point","coordinates":[-1.379938,53.346548]},"properties":{"category":"anti social behaviour","street":"On or near Cotleigh Road","outcome":null,"month":"2026-04"}},{"type":"Feature","geometry":{"type":"Point","coordinates":[-1.377665,53.346896]},"properties":{"category":"anti social behaviour","street":"On or near Four Wells Drive","outcome":null,"month":"2026-04"}},{"type":"Feature","geometry":{"type":"Point","coordinates":[-1.373385,53.357085]},"properties":{"category":"anti social behaviour","street":"On or near Skelton Way","outcome":null,"month":"2026-04"}},{"type":"Feature","geometry":{"type":"Point","coordinates":[-1.332051,53.439521]},"properties":{"category":"anti social behaviour","street":"On or near Bus/coach Station","outcome":null,"month":"2026-04"}},{"type":"Feature","geometry":{"type":"Point","coordinates":[-1.313796,53.372982]},"properties":{"category":"anti social behaviour","street":"On or near Aughton Lane","outcome":null,"month":"2026-04"}},{"type":"Feature","geometry":{"type":"Point","coordinates":[-1.374448,53.332641]},"properties":{"category":"anti social behaviour","street":"On or near Owlthorpe Lane","outcome":null,"month":"2026-04"}},{"type":"Feature","geometry":{"type":"Point","coordinates":[-1.510067,53.388411]},"properties":{"category":"anti social behaviour","street":"On or near Woodfield Road","outcome":null,"month":"2026-04"}},{"type":"Feature","geometry":{"type":"Point","coordinates":[-1.492733,53.398352]},"properties":{"category":"anti social behaviour","street":"On or near Langsett Crescent","outcome":null,"month":"2026-04"}},{"type":"Feature","geometry":{"type":"Point","coordinates":[-1.489661,53.36473]},"properties":{"category":"anti social behaviour","street":"On or near Kenwood Road","outcome":null,"month":"2026-04"}},{"type":"Feature","geometry":{"type":"Point","coordinates":[-1.489102,53.38]},"properties":{"category":"anti social behaviour","street":"On or near Parking Area","outcome":null,"month":"2026-04"}},{"type":"Feature","geometry":{"type":"Point","coordinates":[-1.47523,53.387086]},"properties":{"category":"anti social behaviour","street":"On or near Blue Boy Street","outcome":null,"month":"2026-04"}},{"type":"Feature","geometry":{"type":"Point","coordinates":[-1.472466,53.339451]},"properties":{"category":"anti social behaviour","street":"On or near Bole Hill","outcome":null,"month":"2026-04"}},{"type":"Feature","geometry":{"type":"Point","coordinates":[-1.460136,53.384609]},"properties":{"category":"anti social behaviour","street":"On or near Park/open Space","outcome":null,"month":"2026-04"}},{"type":"Feature","geometry":{"type":"Point","coordinates":[-1.459429,53.371546]},"properties":{"category":"anti social behaviour","street":"On or near Norfolk Park Drive","outcome":null,"month":"2026-04"}},{"type":"Feature","geometry":{"type":"Point","coordinates":[-1.452424,53.406812]},"properties":{"category":"anti social behaviour","street":"On or near Skinnerthorpe Road","outcome":null,"month":"2026-04"}},{"type":"Feature","geometry":{"type":"Point","coordinates":[-1.448185,53.427521]},"properties":{"category":"anti social behaviour","street":"On or near Gregg House Road","outcome":null,"month":"2026-04"}},{"type":"Feature","geometry":{"type":"Point","coordinates":[-1.35727,53.322644]},"properties":{"category":"anti social behaviour","street":"On or near Ralston Place","outcome":null,"month":"2026-04"}},{"type":"Feature","geometry":{"type":"Point","coordinates":[-1.354023,53.42926]},"properties":{"category":"anti social behaviour","street":"On or near Parking Area","outcome":null,"month":"2026-04"}},{"type":"Feature","geometry":{"type":"Point","coordinates":[-1.359053,53.402977]},"properties":{"category":"anti social behaviour","street":"On or near Blackbird Avenue","outcome":null,"month":"2026-04"}},{"type":"Feature","geometry":{"type":"Point","coordinates":[-1.351179,53.423312]},"properties":{"category":"anti social behaviour","street":"On or near Hall Grove","outcome":null,"month":"2026-04"}},{"type":"Feature","geometry":{"type":"Point","coordinates":[-1.302627,53.443883]},"properties":{"category":"anti social behaviour","street":"On or near Meadow Close","outcome":null,"month":"2026-04"}},{"type":"Feature","geometry":{"type":"Point","coordinates":[-1.409314,53.405627]},"properties":{"category":"anti social behaviour","street":"On or near Park/open Space","outcome":null,"month":"2026-04"}},{"type":"Feature","geometry":{"type":"Point","coordinates":[-1.441357,53.35131]},"properties":{"category":"anti social behaviour","street":"On or near Middle Hay Rise","outcome":null,"month":"2026-04"}},{"type":"Feature","geometry":{"type":"Point","coordinates":[-1.458654,53.431487]},"properties":{"category":"anti social behaviour","street":"On or near High Greave","outcome":null,"month":"2026-04"}},{"type":"Feature","geometry":{"type":"Point","coordinates":[-1.457416,53.391608]},"properties":{"category":"anti social behaviour","street":"On or near Hallcar Street","outcome":null,"month":"2026-04"}},{"type":"Feature","geometry":{"type":"Point","coordinates":[-1.459466,53.390017]},"properties":{"category":"anti social behaviour","street":"On or near Spital Hill","outcome":null,"month":"2026-04"}},{"type":"Feature","geometry":{"type":"Point","coordinates":[-1.304207,53.444899]},"properties":{"category":"anti social behaviour","street":"On or near Chesterhill Avenue","outcome":null,"month":"2026-04"}},{"type":"Feature","geometry":{"type":"Point","coordinates":[-1.463051,53.396721]},"properties":{"category":"anti social behaviour","street":"On or near Melrose Road","outcome":null,"month":"2026-04"}},{"type":"Feature","geometry":{"type":"Point","coordinates":[-1.464252,53.383711]},"properties":{"category":"anti social behaviour","street":"On or near Haymarket","outcome":null,"month":"2026-04"}},{"type":"Feature","geometry":{"type":"Point","coordinates":[-1.466603,53.378409]},"properties":{"category":"anti social behaviour","street":"On or near Howard Lane","outcome":null,"month":"2026-04"}},{"type":"Feature","geometry":{"type":"Point","coordinates":[-1.322295,53.443574]},"properties":{"category":"anti social behaviour","street":"On or near Aldwarke Lane","outcome":null,"month":"2026-04"}},{"type":"Feature","geometry":{"type":"Point","coordinates":[-1.329781,53.438555]},"properties":{"category":"anti social behaviour","street":"On or near Larch Mews","outcome":null,"month":"2026-04"}},{"type":"Feature","geometry":{"type":"Point","coordinates":[-1.338587,53.318209]},"properties":{"category":"anti social behaviour","street":"On or near Bright Meadow","outcome":null,"month":"2026-04"}},{"type":"Feature","geometry":{"type":"Point","coordinates":[-1.338587,53.318209]},"properties":{"category":"anti social behaviour","street":"On or near Bright Meadow","outcome":null,"month":"2026-04"}},{"type":"Feature","geometry":{"type":"Point","coordinates":[-1.352012,53.332764]},"properties":{"category":"anti social behaviour","street":"On or near Pedley Drive","outcome":null,"month":"2026-04"}},{"type":"Feature","geometry":{"type":"Point","coordinates":[-1.520982,53.329471]},"properties":{"category":"anti social behaviour","street":"On or near Ryecroft Glen Road","outcome":null,"month":"2026-04"}},{"type":"Feature","geometry":{"type":"Point","coordinates":[-1.371647,53.345462]},"properties":{"category":"anti social behaviour","street":"On or near Delves Place","outcome":null,"month":"2026-04"}},{"type":"Feature","geometry":{"type":"Point","coordinates":[-1.377866,53.384686]},"properties":{"category":"anti social behaviour","street":"On or near Highfield Spring","outcome":null,"month":"2026-04"}},{"type":"Feature","geometry":{"type":"Point","coordinates":[-1.397721,53.447924]},"properties":{"category":"anti social behaviour","street":"On or near Shearman Avenue","outcome":null,"month":"2026-04"}},{"type":"Feature","geometry":{"type":"Point","coordinates":[-1.407497,53.447613]},"properties":{"category":"anti social behaviour","street":"On or near Monks Close","outcome":null,"month":"2026-04"}},{"type":"Feature","geometry":{"type":"Point","coordinates":[-1.339179,53.336298]},"properties":{"category":"anti social behaviour","street":"On or near Bramshill Court","outcome":null,"month":"2026-04"}},{"type":"Feature","geometry":{"type":"Point","coordinates":[-1.46205,53.3854]},"properties":{"category":"anti social behaviour","street":"On or near Blonk Street","outcome":null,"month":"2026-04"}},{"type":"Feature","geometry":{"type":"Point","coordinates":[-1.426593,53.351069]},"properties":{"category":"anti social behaviour","street":"On or near Glade Lea","outcome":null,"month":"2026-04"}},{"type":"Feature","geometry":{"type":"Point","coordinates":[-1.443867,53.426278]},"properties":{"category":"anti social behaviour","street":"On or near Bellhouse Mews","outcome":null,"month":"2026-04"}},{"type":"Feature","geometry":{"type":"Point","coordinates":[-1.314721,53.439863]},"properties":{"category":"anti social behaviour","street":"On or near Bosville Street","outcome":null,"month":"2026-04"}},{"type":"Feature","geometry":{"type":"Point","coordinates":[-1.481448,53.369054]},"properties":{"category":"anti social behaviour","street":"On or near Washington Road","outcome":null,"month":"2026-04"}},{"type":"Feature","geometry":{"type":"Point","coordinates":[-1.31578,53.437712]},"properties":{"category":"anti social behaviour","street":"On or near Greenfield Road","outcome":null,"month":"2026-04"}},{"type":"Feature","geometry":{"type":"Point","coordinates":[-1.488818,53.387414]},"properties":{"category":"anti social behaviour","street":"On or near Oxford Street","outcome":null,"month":"2026-04"}},{"type":"Feature","geometry":{"type":"Point","coordinates":[-1.488175,53.394665]},"properties":{"category":"anti social behaviour","street":"On or near Wood Street","outcome":null,"month":"2026-04"}},{"type":"Feature","geometry":{"type":"Point","coordinates":[-1.4763,53.423692]},"properties":{"category":"anti social behaviour","street":"On or near Falstaff Road","outcome":null,"month":"2026-04"}},{"type":"Feature","geometry":{"type":"Point","coordinates":[-1.466603,53.378409]},"properties":{"category":"anti social behaviour","street":"On or near Howard Lane","outcome":null,"month":"2026-04"}},{"type":"Feature","geometry":{"type":"Point","coordinates":[-1.464849,53.387642]},"properties":{"category":"anti social behaviour","street":"On or near Nursery Lane","outcome":null,"month":"2026-04"}},{"type":"Feature","geometry":{"type":"Point","coordinates":[-1.465818,53.382289]},"properties":{"category":"anti social behaviour","street":"On or near Parking Area","outcome":null,"month":"2026-04"}},{"type":"Feature","geometry":{"type":"Point","coordinates":[-1.447346,53.4098]},"properties":{"category":"anti social behaviour","street":"On or near Bolsover Road East","outcome":null,"month":"2026-04"}},{"type":"Feature","geometry":{"type":"Point","coordinates":[-1.425957,53.360441]},"properties":{"category":"anti social behaviour","street":"On or near Pit Lane","outcome":null,"month":"2026-04"}},{"type":"Feature","geometry":{"type":"Point","coordinates":[-1.408299,53.38555]},"properties":{"category":"anti social behaviour","street":"On or near Parking Area","outcome":null,"month":"2026-04"}},{"type":"Feature","geometry":{"type":"Point","coordinates":[-1.407696,53.409474]},"properties":{"category":"anti social behaviour","street":"On or near Petrol Station","outcome":null,"month":"2026-04"}},{"type":"Feature","geometry":{"type":"Point","coordinates":[-1.325907,53.421743]},"properties":{"category":"anti social behaviour","street":"On or near Shenstone Drive","outcome":null,"month":"2026-04"}},{"type":"Feature","geometry":{"type":"Point","coordinates":[-1.328438,53.434934]},"properties":{"category":"anti social behaviour","street":"On or near Far Place","outcome":null,"month":"2026-04"}},{"type":"Feature","geometry":{"type":"Point","coordinates":[-1.328533,53.437479]},"properties":{"category":"anti social behaviour","street":"On or near North Road","outcome":null,"month":"2026-04"}},{"type":"Feature","geometry":{"type":"Point","coordinates":[-1.346731,53.452312]},"properties":{"category":"anti social behaviour","street":"On or near Parking Area","outcome":null,"month":"2026-04"}},{"type":"Feature","geometry":{"type":"Point","coordinates":[-1.350476,53.332072]},"properties":{"category":"anti social behaviour","street":"On or near Inkersall Drive","outcome":null,"month":"2026-04"}},{"type":"Feature","geometry":{"type":"Point","coordinates":[-1.49474,53.387601]},"properties":{"category":"anti social behaviour","street":"On or near Sydney Road","outcome":null,"month":"2026-04"}},{"type":"Feature","geometry":{"type":"Point","coordinates":[-1.480282,53.359917]},"properties":{"category":"anti social behaviour","street":"On or near Belper Road","outcome":null,"month":"2026-04"}},{"type":"Feature","geometry":{"type":"Point","coordinates":[-1.357098,53.43191]},"properties":{"category":"anti social behaviour","street":"On or near Bridgegate","outcome":null,"month":"2026-04"}},{"type":"Feature","geometry":{"type":"Point","coordinates":[-1.357881,53.425883]},"properties":{"category":"anti social behaviour","street":"On or near Chapel Lane","outcome":null,"month":"2026-04"}},{"type":"Feature","geometry":{"type":"Point","coordinates":[-1.379701,53.450834]},"properties":{"category":"anti social behaviour","street":"On or near Robinets Road","outcome":null,"month":"2026-04"}},{"type":"Feature","geometry":{"type":"Point","coordinates":[-1.386679,53.371949]},"properties":{"category":"anti social behaviour","street":"On or near Hendon Street","outcome":null,"month":"2026-04"}},{"type":"Feature","geometry":{"type":"Point","coordinates":[-1.348208,53.428653]},"properties":{"category":"anti social behaviour","street":"On or near Albany Street","outcome":null,"month":"2026-04"}},{"type":"Feature","geometry":{"type":"Point","coordinates":[-1.493694,53.389574]},"properties":{"category":"anti social behaviour","street":"On or near Birkendale","outcome":null,"month":"2026-04"}},{"type":"Feature","geometry":{"type":"Point","coordinates":[-1.520908,53.41783]},"properties":{"category":"anti social behaviour","street":"On or near Glenwood Court","outcome":null,"month":"2026-04"}},{"type":"Feature","geometry":{"type":"Point","coordinates":[-1.52798,53.436842]},"properties":{"category":"anti social behaviour","street":"On or near Fairholme Heights","outcome":null,"month":"2026-04"}},{"type":"Feature","geometry":{"type":"Point","coordinates":[-1.350476,53.332072]},"properties":{"category":"anti social behaviour","street":"On or near Inkersall Drive","outcome":null,"month":"2026-04"}},{"type":"Feature","geometry":{"type":"Point","coordinates":[-1.328604,53.362297]},"properties":{"category":"anti social behaviour","street":"On or near Park Hill","outcome":null,"month":"2026-04"}},{"type":"Feature","geometry":{"type":"Point","coordinates":[-1.350476,53.332072]},"properties":{"category":"anti social behaviour","street":"On or near Inkersall Drive","outcome":null,"month":"2026-04"}},{"type":"Feature","geometry":{"type":"Point","coordinates":[-1.382004,53.35641]},"properties":{"category":"anti social behaviour","street":"On or near Ashpool Close","outcome":null,"month":"2026-04"}},{"type":"Feature","geometry":{"type":"Point","coordinates":[-1.461808,53.432041]},"properties":{"category":"anti social behaviour","street":"On or near Knowle Road","outcome":null,"month":"2026-04"}},{"type":"Feature","geometry":{"type":"Point","coordinates":[-1.393522,53.375867]},"properties":{"category":"anti social behaviour","street":"On or near Handsworth Road","outcome":null,"month":"2026-04"}},{"type":"Feature","geometry":{"type":"Point","coordinates":[-1.455601,53.375915]},"properties":{"category":"anti social behaviour","street":"On or near Norfolk Road","outcome":null,"month":"2026-04"}},{"type":"Feature","geometry":{"type":"Point","coordinates":[-1.445973,53.368392]},"properties":{"category":"anti social behaviour","street":"On or near St Aidan's Avenue","outcome":null,"month":"2026-04"}},{"type":"Feature","geometry":{"type":"Point","coordinates":[-1.444875,53.408971]},"properties":{"category":"anti social behaviour","street":"On or near Robey Street","outcome":null,"month":"2026-04"}},{"type":"Feature","geometry":{"type":"Point","coordinates":[-1.443927,53.358225]},"properties":{"category":"anti social behaviour","street":"On or near Berners Road","outcome":null,"month":"2026-04"}},{"type":"Feature","geometry":{"type":"Point","coordinates":[-1.433157,53.373842]},"properties":{"category":"anti social behaviour","street":"On or near Manor Park Way","outcome":null,"month":"2026-04"}},{"type":"Feature","geometry":{"type":"Point","coordinates":[-1.423045,53.366863]},"properties":{"category":"anti social behaviour","street":"On or near Church Field Grove","outcome":null,"month":"2026-04"}},{"type":"Feature","geometry":{"type":"Point","coordinates":[-1.40108,53.361056]},"properties":{"category":"anti social behaviour","street":"On or near Richmond Place","outcome":null,"month":"2026-04"}},{"type":"Feature","geometry":{"type":"Point","coordinates":[-1.401316,53.383871]},"properties":{"category":"anti social behaviour","street":"On or near High Hazels Mead","outcome":null,"month":"2026-04"}},{"type":"Feature","geometry":{"type":"Point","coordinates":[-1.399285,53.373281]},"properties":{"category":"anti social behaviour","street":"On or near Richmond Park View","outcome":null,"month":"2026-04"}},{"type":"Feature","geometry":{"type":"Point","coordinates":[-1.395835,53.368553]},"properties":{"category":"anti social behaviour","street":"On or near B6065","outcome":null,"month":"2026-04"}},{"type":"Feature","geometry":{"type":"Point","coordinates":[-1.360727,53.322393]},"properties":{"category":"anti social behaviour","street":"On or near Elmwood Drive","outcome":null,"month":"2026-04"}},{"type":"Feature","geometry":{"type":"Point","coordinates":[-1.357183,53.344307]},"properties":{"category":"anti social behaviour","street":"On or near Shopping Area","outcome":null,"month":"2026-04"}},{"type":"Feature","geometry":{"type":"Point","coordinates":[-1.363853,53.326176]},"properties":{"category":"anti social behaviour","street":"On or near Parking Area","outcome":null,"month":"2026-04"}},{"type":"Feature","geometry":{"type":"Point","coordinates":[-1.371428,53.330755]},"properties":{"category":"anti social behaviour","street":"On or near Moor Farm Rise","outcome":null,"month":"2026-04"}},{"type":"Feature","geometry":{"type":"Point","coordinates":[-1.481046,53.391048]},"properties":{"category":"anti social behaviour","street":"On or near Bedford Street","outcome":null,"month":"2026-04"}},{"type":"Feature","geometry":{"type":"Point","coordinates":[-1.386679,53.371949]},"properties":{"category":"anti social behaviour","street":"On or near Hendon Street","outcome":null,"month":"2026-04"}},{"type":"Feature","geometry":{"type":"Point","coordinates":[-1.386256,53.429592]},"properties":{"category":"anti social behaviour","street":"On or near Pitt Street","outcome":null,"month":"2026-04"}},{"type":"Feature","geometry":{"type":"Point","coordinates":[-1.390997,53.428519]},"properties":{"category":"anti social behaviour","street":"On or near Edale Road","outcome":null,"month":"2026-04"}},{"type":"Feature","geometry":{"type":"Point","coordinates":[-1.390922,53.440226]},"properties":{"category":"anti social behaviour","street":"On or near Sports/recreation Area","outcome":null,"month":"2026-04"}},{"type":"Feature","geometry":{"type":"Point","coordinates":[-1.419302,53.340418]},"properties":{"category":"anti social behaviour","street":"On or near Carterhall Lane","outcome":null,"month":"2026-04"}},{"type":"Feature","geometry":{"type":"Point","coordinates":[-1.420543,53.422761]},"properties":{"category":"anti social behaviour","street":"On or near Oakes Street","outcome":null,"month":"2026-04"}},{"type":"Feature","geometry":{"type":"Point","coordinates":[-1.482181,53.363197]},"properties":{"category":"anti social behaviour","street":"On or near Crescent Road","outcome":null,"month":"2026-04"}},{"type":"Feature","geometry":{"type":"Point","coordinates":[-1.462359,53.387172]},"properties":{"category":"anti social behaviour","street":"On or near Wicker","outcome":null,"month":"2026-04"}},{"type":"Feature","geometry":{"type":"Point","coordinates":[-1.465294,53.414547]},"properties":{"category":"anti social behaviour","street":"On or near Piper Road","outcome":null,"month":"2026-04"}},{"type":"Feature","geometry":{"type":"Point","coordinates":[-1.470679,53.37823]},"properties":{"category":"anti social behaviour","street":"On or near Union Street","outcome":null,"month":"2026-04"}},{"type":"Feature","geometry":{"type":"Point","coordinates":[-1.490216,53.387465]},"properties":{"category":"anti social behaviour","street":"On or near Albion Street","outcome":null,"month":"2026-04"}},{"type":"Feature","geometry":{"type":"Point","coordinates":[-1.485009,53.354202]},"properties":{"category":"anti social behaviour","street":"On or near Langdale Road","outcome":null,"month":"2026-04"}},{"type":"Feature","geometry":{"type":"Point","coordinates":[-1.374975,53.343852]},"properties":{"category":"anti social behaviour","street":"On or near Greenside Mews","outcome":null,"month":"2026-04"}},{"type":"Feature","geometry":{"type":"Point","coordinates":[-1.491979,53.388389]},"properties":{"category":"anti social behaviour","street":"On or near Wellfield Road","outcome":null,"month":"2026-04"}},{"type":"Feature","geometry":{"type":"Point","coordinates":[-1.380393,53.435359]},"properties":{"category":"anti social behaviour","street":"On or near Colwick Grove","outcome":null,"month":"2026-04"}},{"type":"Feature","geometry":{"type":"Point","coordinates":[-1.495144,53.385221]},"properties":{"category":"anti social behaviour","street":"On or near Ivy Drive","outcome":null,"month":"2026-04"}},{"type":"Feature","geometry":{"type":"Point","coordinates":[-1.509478,53.414799]},"properties":{"category":"anti social behaviour","street":"On or near Harris Road","outcome":null,"month":"2026-04"}},{"type":"Feature","geometry":{"type":"Point","coordinates":[-1.525905,53.406902]},"properties":{"category":"anti social behaviour","street":"On or near Ben Close","outcome":null,"month":"2026-04"}},{"type":"Feature","geometry":{"type":"Point","coordinates":[-1.530966,53.392558]},"properties":{"category":"anti social behaviour","street":"On or near Deer Park Close","outcome":null,"month":"2026-04"}},{"type":"Feature","geometry":{"type":"Point","coordinates":[-1.383575,53.430791]},"properties":{"category":"anti social behaviour","street":"On or near Meadowbank Close","outcome":null,"month":"2026-04"}},{"type":"Feature","geometry":{"type":"Point","coordinates":[-1.486327,53.389552]},"properties":{"category":"anti social behaviour","street":"On or near Parking Area","outcome":null,"month":"2026-04"}},{"type":"Feature","geometry":{"type":"Point","coordinates":[-1.452424,53.406812]},"properties":{"category":"anti social behaviour","street":"On or near Skinnerthorpe Road","outcome":null,"month":"2026-04"}},{"type":"Feature","geometry":{"type":"Point","coordinates":[-1.501328,53.353903]},"properties":{"category":"anti social behaviour","street":"On or near Knab Close","outcome":null,"month":"2026-04"}},{"type":"Feature","geometry":{"type":"Point","coordinates":[-1.500754,53.428522]},"properties":{"category":"anti social behaviour","street":"On or near Sports/recreation Area","outcome":null,"month":"2026-04"}},{"type":"Feature","geometry":{"type":"Point","coordinates":[-1.467682,53.379861]},"properties":{"category":"anti social behaviour","street":"On or near Cadman Lane","outcome":null,"month":"2026-04"}},{"type":"Feature","geometry":{"type":"Point","coordinates":[-1.491071,53.386399]},"properties":{"category":"anti social behaviour","street":"On or near Tay Street","outcome":null,"month":"2026-04"}},{"type":"Feature","geometry":{"type":"Point","coordinates":[-1.304366,53.331803]},"properties":{"category":"anti social behaviour","street":"On or near Aldred Close","outcome":null,"month":"2026-04"}},{"type":"Feature","geometry":{"type":"Point","coordinates":[-1.31525,53.361053]},"properties":{"category":"anti social behaviour","street":"On or near Hilary Way","outcome":null,"month":"2026-04"}},{"type":"Feature","geometry":{"type":"Point","coordinates":[-1.44033,53.357507]},"properties":{"category":"anti social behaviour","street":"On or near Berners Place","outcome":null,"month":"2026-04"}},{"type":"Feature","geometry":{"type":"Point","coordinates":[-1.445922,53.411735]},"properties":{"category":"anti social behaviour","street":"On or near Addison Road","outcome":null,"month":"2026-04"}},{"type":"Feature","geometry":{"type":"Point","coordinates":[-1.45463,53.356602]},"properties":{"category":"anti social behaviour","street":"On or near Grindlow Drive","outcome":null,"month":"2026-04"}},{"type":"Feature","geometry":{"type":"Point","coordinates":[-1.447346,53.4098]},"properties":{"category":"anti social behaviour","street":"On or near Bolsover Road East","outcome":null,"month":"2026-04"}},{"type":"Feature","geometry":{"type":"Point","coordinates":[-1.448639,53.4087]},"properties":{"category":"anti social behaviour","street":"On or near Selby Road","outcome":null,"month":"2026-04"}},{"type":"Feature","geometry":{"type":"Point","coordinates":[-1.521537,53.349734]},"properties":{"category":"anti social behaviour","street":"On or near Ecclesall Road South","outcome":null,"month":"2026-04"}},{"type":"Feature","geometry":{"type":"Point","coordinates":[-1.474001,53.40286]},"properties":{"category":"anti social behaviour","street":"On or near Sports/recreation Area","outcome":null,"month":"2026-04"}},{"type":"Feature","geometry":{"type":"Point","coordinates":[-1.469379,53.4115]},"properties":{"category":"anti social behaviour","street":"On or near Busk Meadow","outcome":null,"month":"2026-04"}},{"type":"Feature","geometry":{"type":"Point","coordinates":[-1.345764,53.319085]},"properties":{"category":"anti social behaviour","street":"On or near Hall Meadow Croft","outcome":null,"month":"2026-04"}},{"type":"Feature","geometry":{"type":"Point","coordinates":[-1.450497,53.375406]},"properties":{"category":"anti social behaviour","street":"On or near Ingram Court","outcome":null,"month":"2026-04"}},{"type":"Feature","geometry":{"type":"Point","coordinates":[-1.458942,53.359031]},"properties":{"category":"anti social behaviour","street":"On or near Derby Terrace","outcome":null,"month":"2026-04"}},{"type":"Feature","geometry":{"type":"Point","coordinates":[-1.469457,53.408795]},"properties":{"category":"anti social behaviour","street":"On or near Musgrave Drive","outcome":null,"month":"2026-04"}},{"type":"Feature","geometry":{"type":"Point","coordinates":[-1.453699,53.435321]},"properties":{"category":"anti social behaviour","street":"On or near Godric Road","outcome":null,"month":"2026-04"}},{"type":"Feature","geometry":{"type":"Point","coordinates":[-1.492623,53.379745]},"properties":{"category":"anti social behaviour","street":"On or near Claremont Crescent","outcome":null,"month":"2026-04"}},{"type":"Feature","geometry":{"type":"Point","coordinates":[-1.491312,53.367398]},"properties":{"category":"anti social behaviour","street":"On or near Westbrook Bank","outcome":null,"month":"2026-04"}},{"type":"Feature","geometry":{"type":"Point","coordinates":[-1.491312,53.367398]},"properties":{"category":"anti social behaviour","street":"On or near Westbrook Bank","outcome":null,"month":"2026-04"}},{"type":"Feature","geometry":{"type":"Point","coordinates":[-1.478148,53.436176]},"properties":{"category":"anti social behaviour","street":"On or near Coppin Square","outcome":null,"month":"2026-04"}},{"type":"Feature","geometry":{"type":"Point","coordinates":[-1.452927,53.430904]},"properties":{"category":"anti social behaviour","street":"On or near Hartley Brook Avenue","outcome":null,"month":"2026-04"}},{"type":"Feature","geometry":{"type":"Point","coordinates":[-1.468581,53.381809]},"properties":{"category":"anti social behaviour","street":"On or near Shopping Area","outcome":null,"month":"2026-04"}},{"type":"Feature","geometry":{"type":"Point","coordinates":[-1.470088,53.416177]},"properties":{"category":"anti social behaviour","street":"On or near Everingham Close","outcome":null,"month":"2026-04"}},{"type":"Feature","geometry":{"type":"Point","coordinates":[-1.471097,53.384568]},"properties":{"category":"anti social behaviour","street":"On or near Silver Street","outcome":null,"month":"2026-04"}},{"type":"Feature","geometry":{"type":"Point","coordinates":[-1.471107,53.434664]},"properties":{"category":"anti social behaviour","street":"On or near Sports/recreation Area","outcome":null,"month":"2026-04"}},{"type":"Feature","geometry":{"type":"Point","coordinates":[-1.480888,53.366913]},"properties":{"category":"anti social behaviour","street":"On or near Smeaton Street","outcome":null,"month":"2026-04"}},{"type":"Feature","geometry":{"type":"Point","coordinates":[-1.501761,53.401815]},"properties":{"category":"anti social behaviour","street":"On or near River Terrace","outcome":null,"month":"2026-04"}},{"type":"Feature","geometry":{"type":"Point","coordinates":[-1.48439,53.419188]},"properties":{"category":"anti social behaviour","street":"On or near Dryden Way","outcome":null,"month":"2026-04"}},{"type":"Feature","geometry":{"type":"Point","coordinates":[-1.432198,53.388264]},"properties":{"category":"anti social behaviour","street":"On or near Stadium Way","outcome":null,"month":"2026-04"}},{"type":"Feature","geometry":{"type":"Point","coordinates":[-1.482953,53.370131]},"properties":{"category":"anti social behaviour","street":"On or near Cemetery Road","outcome":null,"month":"2026-04"}},{"type":"Feature","geometry":{"type":"Point","coordinates":[-1.481663,53.42812]},"properties":{"category":"anti social behaviour","street":"On or near Deerlands Close","outcome":null,"month":"2026-04"}},{"type":"Feature","geometry":{"type":"Point","coordinates":[-1.446317,53.380142]},"properties":{"category":"anti social behaviour","street":"On or near Nuttall Place","outcome":null,"month":"2026-04"}},{"type":"Feature","geometry":{"type":"Point","coordinates":[-1.440875,53.374417]},"properties":{"category":"anti social behaviour","street":"On or near Magpie Grove","outcome":null,"month":"2026-04"}},{"type":"Feature","geometry":{"type":"Point","coordinates":[-1.394992,53.414274]},"properties":{"category":"anti social behaviour","street":"On or near St Lawrence Road","outcome":null,"month":"2026-04"}},{"type":"Feature","geometry":{"type":"Point","coordinates":[-1.357052,53.425016]},"properties":{"category":"anti social behaviour","street":"On or near The Maltings","outcome":null,"month":"2026-04"}},{"type":"Feature","geometry":{"type":"Point","coordinates":[-1.350963,53.378169]},"properties":{"category":"anti social behaviour","street":"On or near Park/open Space","outcome":null,"month":"2026-04"}},{"type":"Feature","geometry":{"type":"Point","coordinates":[-1.486435,53.351818]},"properties":{"category":"anti social behaviour","street":"On or near Crummock Road","outcome":null,"month":"2026-04"}},{"type":"Feature","geometry":{"type":"Point","coordinates":[-1.483283,53.377629]},"properties":{"category":"anti social behaviour","street":"On or near Broomspring Close","outcome":null,"month":"2026-04"}},{"type":"Feature","geometry":{"type":"Point","coordinates":[-1.485009,53.354202]},"properties":{"category":"anti social behaviour","street":"On or near Langdale Road","outcome":null,"month":"2026-04"}},{"type":"Feature","geometry":{"type":"Point","coordinates":[-1.485548,53.380533]},"properties":{"category":"anti social behaviour","street":"On or near Hounsfield Lane","outcome":null,"month":"2026-04"}},{"type":"Feature","geometry":{"type":"Point","coordinates":[-1.463345,53.325469]},"properties":{"category":"anti social behaviour","street":"On or near Ormond Way","outcome":null,"month":"2026-04"}},{"type":"Feature","geometry":{"type":"Point","coordinates":[-1.493047,53.366875]},"properties":{"category":"anti social behaviour","street":"On or near Bagshot Street","outcome":null,"month":"2026-04"}},{"type":"Feature","geometry":{"type":"Point","coordinates":[-1.494785,53.349498]},"properties":{"category":"anti social behaviour","street":"On or near Woodland Rise","outcome":null,"month":"2026-04"}},{"type":"Feature","geometry":{"type":"Point","coordinates":[-1.497501,53.405977]},"properties":{"category":"anti social behaviour","street":"On or near Burnell Road","outcome":null,"month":"2026-04"}},{"type":"Feature","geometry":{"type":"Point","coordinates":[-1.504851,53.407733]},"properties":{"category":"anti social behaviour","street":"On or near Keyworth Road","outcome":null,"month":"2026-04"}},{"type":"Feature","geometry":{"type":"Point","coordinates":[-1.504107,53.376]},"properties":{"category":"anti social behaviour","street":"On or near Ashgate Close","outcome":null,"month":"2026-04"}},{"type":"Feature","geometry":{"type":"Point","coordinates":[-1.484634,53.335441]},"properties":{"category":"anti social behaviour","street":"On or near Parking Area","outcome":null,"month":"2026-04"}},{"type":"Feature","geometry":{"type":"Point","coordinates":[-1.477317,53.378717]},"properties":{"category":"anti social behaviour","street":"On or near Eldon Street","outcome":null,"month":"2026-04"}},{"type":"Feature","geometry":{"type":"Point","coordinates":[-1.417715,53.373102]},"properties":{"category":"anti social behaviour","street":"On or near Prince Of Wales Road","outcome":null,"month":"2026-04"}},{"type":"Feature","geometry":{"type":"Point","coordinates":[-1.507955,53.385339]},"properties":{"category":"anti social behaviour","street":"On or near Supermarket","outcome":null,"month":"2026-04"}},{"type":"Feature","geometry":{"type":"Point","coordinates":[-1.471654,53.422099]},"properties":{"category":"anti social behaviour","street":"On or near Adrian Crescent","outcome":null,"month":"2026-04"}},{"type":"Feature","geometry":{"type":"Point","coordinates":[-1.536492,53.376705]},"properties":{"category":"anti social behaviour","street":"On or near Sandygate Park Crescent","outcome":null,"month":"2026-04"}},{"type":"Feature","geometry":{"type":"Point","coordinates":[-1.471238,53.386547]},"properties":{"category":"anti social behaviour","street":"On or near Bower Spring","outcome":null,"month":"2026-04"}},{"type":"Feature","geometry":{"type":"Point","coordinates":[-1.511891,53.430054]},"properties":{"category":"anti social behaviour","street":"On or near Hirst Common Lane","outcome":null,"month":"2026-04"}},{"type":"Feature","geometry":{"type":"Point","coordinates":[-1.487939,53.37044]},"properties":{"category":"anti social behaviour","street":"On or near Sawdon Road","outcome":null,"month":"2026-04"}},{"type":"Feature","geometry":{"type":"Point","coordinates":[-1.488818,53.387414]},"properties":{"category":"anti social behaviour","street":"On or near Oxford Street","outcome":null,"month":"2026-04"}},{"type":"Feature","geometry":{"type":"Point","coordinates":[-1.448771,53.398508]},"properties":{"category":"anti social behaviour","street":"On or near Fieldhouse Way","outcome":null,"month":"2026-04"}},{"type":"Feature","geometry":{"type":"Point","coordinates":[-1.445886,53.412229]},"properties":{"category":"anti social behaviour","street":"On or near Hamilton Road","outcome":null,"month":"2026-04"}},{"type":"Feature","geometry":{"type":"Point","coordinates":[-1.31494,53.365357]},"properties":{"category":"anti social behaviour","street":"On or near Wesley Avenue","outcome":null,"month":"2026-04"}},{"type":"Feature","geometry":{"type":"Point","coordinates":[-1.310181,53.365986]},"properties":{"category":"anti social behaviour","street":"On or near Rosedale Road","outcome":null,"month":"2026-04"}},{"type":"Feature","geometry":{"type":"Point","coordinates":[-1.47486,53.3817]},"properties":{"category":"anti social behaviour","street":"On or near Trippet Lane","outcome":null,"month":"2026-04"}},{"type":"Feature","geometry":{"type":"Point","coordinates":[-1.349387,53.43621]},"properties":{"category":"anti social behaviour","street":"On or near Bramwell Street","outcome":null,"month":"2026-04"}},{"type":"Feature","geometry":{"type":"Point","coordinates":[-1.363853,53.326176]},"properties":{"category":"anti social behaviour","street":"On or near Parking Area","outcome":null,"month":"2026-04"}},{"type":"Feature","geometry":{"type":"Point","coordinates":[-1.372834,53.366987]},"properties":{"category":"anti social behaviour","street":"On or near Beaver Avenue","outcome":null,"month":"2026-04"}},{"type":"Feature","geometry":{"type":"Point","coordinates":[-1.374682,53.360849]},"properties":{"category":"anti social behaviour","street":"On or near Mauncer Drive","outcome":null,"month":"2026-04"}},{"type":"Feature","geometry":{"type":"Point","coordinates":[-1.48963,53.388667]},"properties":{"category":"anti social behaviour","street":"On or near Addy Drive","outcome":null,"month":"2026-04"}},{"type":"Feature","geometry":{"type":"Point","coordinates":[-1.487052,53.385474]},"properties":{"category":"anti social behaviour","street":"On or near St Stephen's Walk","outcome":null,"month":"2026-04"}},{"type":"Feature","geometry":{"type":"Point","coordinates":[-1.468591,53.404656]},"properties":{"category":"anti social behaviour","street":"On or near Firshill Crescent","outcome":null,"month":"2026-04"}},{"type":"Feature","geometry":{"type":"Point","coordinates":[-1.4662,53.39261]},"properties":{"category":"anti social behaviour","street":"On or near Neville Drive","outcome":null,"month":"2026-04"}},{"type":"Feature","geometry":{"type":"Point","coordinates":[-1.45546,53.361038]},"properties":{"category":"anti social behaviour","street":"On or near Erskine Crescent","outcome":null,"month":"2026-04"}},{"type":"Feature","geometry":{"type":"Point","coordinates":[-1.443835,53.383806]},"properties":{"category":"anti social behaviour","street":"On or near Shopping Area","outcome":null,"month":"2026-04"}},{"type":"Feature","geometry":{"type":"Point","coordinates":[-1.414479,53.377788]},"properties":{"category":"anti social behaviour","street":"On or near Littledale Road","outcome":null,"month":"2026-04"}},{"type":"Feature","geometry":{"type":"Point","coordinates":[-1.386651,53.342439]},"properties":{"category":"anti social behaviour","street":"On or near Grassdale View","outcome":null,"month":"2026-04"}},{"type":"Feature","geometry":{"type":"Point","coordinates":[-1.357892,53.431195]},"properties":{"category":"anti social behaviour","street":"On or near Corporation Street","outcome":null,"month":"2026-04"}},{"type":"Feature","geometry":{"type":"Point","coordinates":[-1.313768,53.44295]},"properties":{"category":"anti social behaviour","street":"On or near Ivy Farm Croft","outcome":null,"month":"2026-04"}},{"type":"Feature","geometry":{"type":"Point","coordinates":[-1.372841,53.432974]},"properties":{"category":"anti social behaviour","street":"On or near Park Street","outcome":null,"month":"2026-04"}},{"type":"Feature","geometry":{"type":"Point","coordinates":[-1.38046,53.426604]},"properties":{"category":"anti social behaviour","street":"On or near Steel Street","outcome":null,"month":"2026-04"}},{"type":"Feature","geometry":{"type":"Point","coordinates":[-1.478684,53.340602]},"properties":{"category":"anti social behaviour","street":"On or near Woodseats House Road","outcome":null,"month":"2026-04"}},{"type":"Feature","geometry":{"type":"Point","coordinates":[-1.381223,53.349072]},"properties":{"category":"anti social behaviour","street":"On or near Carr Forge Mount","outcome":null,"month":"2026-04"}},{"type":"Feature","geometry":{"type":"Point","coordinates":[-1.384373,53.348396]},"properties":{"category":"anti social behaviour","street":"On or near Dyke Vale Way","outcome":null,"month":"2026-04"}},{"type":"Feature","geometry":{"type":"Point","coordinates":[-1.410352,53.37623]},"properties":{"category":"anti social behaviour","street":"On or near Bowden Wood Drive","outcome":null,"month":"2026-04"}},{"type":"Feature","geometry":{"type":"Point","coordinates":[-1.417715,53.373102]},"properties":{"category":"anti social behaviour","street":"On or near Prince Of Wales Road","outcome":null,"month":"2026-04"}},{"type":"Feature","geometry":{"type":"Point","coordinates":[-1.417387,53.431266]},"properties":{"category":"anti social behaviour","street":"On or near Baring Road","outcome":null,"month":"2026-04"}},{"type":"Feature","geometry":{"type":"Point","coordinates":[-1.426917,53.369488]},"properties":{"category":"anti social behaviour","street":"On or near Raynald Road","outcome":null,"month":"2026-04"}},{"type":"Feature","geometry":{"type":"Point","coordinates":[-1.436295,53.432121]},"properties":{"category":"anti social behaviour","street":"On or near Keppel Road","outcome":null,"month":"2026-04"}},{"type":"Feature","geometry":{"type":"Point","coordinates":[-1.442163,53.350612]},"properties":{"category":"anti social behaviour","street":"On or near Middle Hay View","outcome":null,"month":"2026-04"}},{"type":"Feature","geometry":{"type":"Point","coordinates":[-1.446717,53.348099]},"properties":{"category":"anti social behaviour","street":"On or near Overend Way","outcome":null,"month":"2026-04"}},{"type":"Feature","geometry":{"type":"Point","coordinates":[-1.450118,53.436374]},"properties":{"category":"anti social behaviour","street":"On or near Dunninc Road","outcome":null,"month":"2026-04"}},{"type":"Feature","geometry":{"type":"Point","coordinates":[-1.451295,53.433818]},"properties":{"category":"anti social behaviour","street":"On or near Perkyn Road","outcome":null,"month":"2026-04"}},{"type":"Feature","geometry":{"type":"Point","coordinates":[-1.451969,53.42236]},"properties":{"category":"anti social behaviour","street":"On or near Padley Way","outcome":null,"month":"2026-04"}},{"type":"Feature","geometry":{"type":"Point","coordinates":[-1.468247,53.390084]},"properties":{"category":"anti social behaviour","street":"On or near Chatham Street","outcome":null,"month":"2026-04"}},{"type":"Feature","geometry":{"type":"Point","coordinates":[-1.474764,53.32721]},"properties":{"category":"anti social behaviour","street":"On or near Petrol Station","outcome":null,"month":"2026-04"}},{"type":"Feature","geometry":{"type":"Point","coordinates":[-1.474982,53.381592]},"properties":{"category":"anti social behaviour","street":"On or near Penton Street","outcome":null,"month":"2026-04"}},{"type":"Feature","geometry":{"type":"Point","coordinates":[-1.476102,53.372402]},"properties":{"category":"anti social behaviour","street":"On or near Hermitage Street","outcome":null,"month":"2026-04"}},{"type":"Feature","geometry":{"type":"Point","coordinates":[-1.489412,53.352846]},"properties":{"category":"anti social behaviour","street":"On or near Coverdale Road","outcome":null,"month":"2026-04"}},{"type":"Feature","geometry":{"type":"Point","coordinates":[-1.478359,53.370974]},"properties":{"category":"anti social behaviour","street":"On or near Leverton Drive","outcome":null,"month":"2026-04"}},{"type":"Feature","geometry":{"type":"Point","coordinates":[-1.470909,53.364487]},"properties":{"category":"anti social behaviour","street":"On or near Jersey Road","outcome":null,"month":"2026-04"}},{"type":"Feature","geometry":{"type":"Point","coordinates":[-1.43382,53.398654]},"properties":{"category":"anti social behaviour","street":"On or near Newhall Road","outcome":null,"month":"2026-04"}},{"type":"Feature","geometry":{"type":"Point","coordinates":[-1.358712,53.355613]},"properties":{"category":"anti social behaviour","street":"On or near Stacye Rise","outcome":null,"month":"2026-04"}},{"type":"Feature","geometry":{"type":"Point","coordinates":[-1.449698,53.404777]},"properties":{"category":"anti social behaviour","street":"On or near Whiteways Close","outcome":null,"month":"2026-04"}},{"type":"Feature","geometry":{"type":"Point","coordinates":[-1.477375,53.362942]},"properties":{"category":"anti social behaviour","street":"On or near Chippinghouse Road","outcome":null,"month":"2026-04"}},{"type":"Feature","geometry":{"type":"Point","coordinates":[-1.47775,53.367933]},"properties":{"category":"anti social behaviour","street":"On or near Hobart Street","outcome":null,"month":"2026-04"}},{"type":"Feature","geometry":{"type":"Point","coordinates":[-1.478148,53.436176]},"properties":{"category":"anti social behaviour","street":"On or near Coppin Square","outcome":null,"month":"2026-04"}},{"type":"Feature","geometry":{"type":"Point","coordinates":[-1.480888,53.366913]},"properties":{"category":"anti social behaviour","street":"On or near Smeaton Street","outcome":null,"month":"2026-04"}},{"type":"Feature","geometry":{"type":"Point","coordinates":[-1.488662,53.322587]},"properties":{"category":"anti social behaviour","street":"On or near Atlantic Way","outcome":null,"month":"2026-04"}},{"type":"Feature","geometry":{"type":"Point","coordinates":[-1.492789,53.427754]},"properties":{"category":"anti social behaviour","street":"On or near Halifax Road","outcome":null,"month":"2026-04"}},{"type":"Feature","geometry":{"type":"Point","coordinates":[-1.49474,53.387601]},"properties":{"category":"anti social behaviour","street":"On or near Sydney Road","outcome":null,"month":"2026-04"}},{"type":"Feature","geometry":{"type":"Point","coordinates":[-1.507955,53.385339]},"properties":{"category":"anti social behaviour","street":"On or near Supermarket","outcome":null,"month":"2026-04"}},{"type":"Feature","geometry":{"type":"Point","coordinates":[-1.514906,53.378067]},"properties":{"category":"anti social behaviour","street":"On or near Vernon Terrace","outcome":null,"month":"2026-04"}},{"type":"Feature","geometry":{"type":"Point","coordinates":[-1.59904,53.366972]},"properties":{"category":"anti social behaviour","street":"On or near Park/open Space","outcome":null,"month":"2026-04"}},{"type":"Feature","geometry":{"type":"Point","coordinates":[-1.55451,53.452089]},"properties":{"category":"anti social behaviour","street":"On or near Broom Royd","outcome":null,"month":"2026-04"}},{"type":"Feature","geometry":{"type":"Point","coordinates":[-1.552945,53.450565]},"properties":{"category":"anti social behaviour","street":"On or near Brightholmlee Court","outcome":null,"month":"2026-04"}},{"type":"Feature","geometry":{"type":"Point","coordinates":[-1.386876,53.440902]},"properties":{"category":"anti social behaviour","street":"On or near Kiln Road","outcome":null,"month":"2026-04"}},{"type":"Feature","geometry":{"type":"Point","coordinates":[-1.379701,53.450834]},"properties":{"category":"anti social behaviour","street":"On or near Robinets Road","outcome":null,"month":"2026-04"}},{"type":"Feature","geometry":{"type":"Point","coordinates":[-1.349996,53.331036]},"properties":{"category":"anti social behaviour","street":"On or near Westfield Centre","outcome":null,"month":"2026-04"}},{"type":"Feature","geometry":{"type":"Point","coordinates":[-1.306527,53.419816]},"properties":{"category":"anti social behaviour","street":"On or near Bawtry Road","outcome":null,"month":"2026-04"}},{"type":"Feature","geometry":{"type":"Point","coordinates":[-1.490216,53.387465]},"properties":{"category":"anti social behaviour","street":"On or near Albion Street","outcome":null,"month":"2026-04"}},{"type":"Feature","geometry":{"type":"Point","coordinates":[-1.491567,53.390176]},"properties":{"category":"anti social behaviour","street":"On or near Birkendale Road","outcome":null,"month":"2026-04"}},{"type":"Feature","geometry":{"type":"Point","coordinates":[-1.482181,53.363197]},"properties":{"category":"anti social behaviour","street":"On or near Crescent Road","outcome":null,"month":"2026-04"}},{"type":"Feature","geometry":{"type":"Point","coordinates":[-1.348127,53.454567]},"properties":{"category":"anti social behaviour","street":"On or near Newbiggin Drive","outcome":null,"month":"2026-04"}},{"type":"Feature","geometry":{"type":"Point","coordinates":[-1.350627,53.383453]},"properties":{"category":"anti social behaviour","street":"On or near Townend Close","outcome":null,"month":"2026-04"}},{"type":"Feature","geometry":{"type":"Point","coordinates":[-1.350088,53.437625]},"properties":{"category":"anti social behaviour","street":"On or near Russell Street","outcome":null,"month":"2026-04"}},{"type":"Feature","geometry":{"type":"Point","coordinates":[-1.372803,53.373189]},"properties":{"category":"anti social behaviour","street":"On or near Rotherham Road","outcome":null,"month":"2026-04"}},{"type":"Feature","geometry":{"type":"Point","coordinates":[-1.377268,53.349402]},"properties":{"category":"anti social behaviour","street":"On or near Carr Forge Road","outcome":null,"month":"2026-04"}},{"type":"Feature","geometry":{"type":"Point","coordinates":[-1.392001,53.361235]},"properties":{"category":"anti social behaviour","street":"On or near Smelter Wood Crescent","outcome":null,"month":"2026-04"}},{"type":"Feature","geometry":{"type":"Point","coordinates":[-1.391033,53.427036]},"properties":{"category":"anti social behaviour","street":"On or near Meadow Bank Road","outcome":null,"month":"2026-04"}},{"type":"Feature","geometry":{"type":"Point","coordinates":[-1.410823,53.375891]},"properties":{"category":"anti social behaviour","street":"On or near Bowden Wood Place","outcome":null,"month":"2026-04"}},{"type":"Feature","geometry":{"type":"Point","coordinates":[-1.411232,53.353799]},"properties":{"category":"anti social behaviour","street":"On or near Hollinsend Avenue","outcome":null,"month":"2026-04"}},{"type":"Feature","geometry":{"type":"Point","coordinates":[-1.536413,53.396426]},"properties":{"category":"anti social behaviour","street":"On or near Little Matlock Way","outcome":null,"month":"2026-04"}},{"type":"Feature","geometry":{"type":"Point","coordinates":[-1.398111,53.426713]},"properties":{"category":"anti social behaviour","street":"On or near Thornton Terrace","outcome":null,"month":"2026-04"}},{"type":"Feature","geometry":{"type":"Point","coordinates":[-1.354393,53.423725]},"properties":{"category":"anti social behaviour","street":"On or near Mountenoy Road","outcome":null,"month":"2026-04"}},{"type":"Feature","geometry":{"type":"Point","coordinates":[-1.346005,53.452533]},"properties":{"category":"anti social behaviour","street":"On or near Greasbrough Road","outcome":null,"month":"2026-04"}},{"type":"Feature","geometry":{"type":"Point","coordinates":[-1.336332,53.33781]},"properties":{"category":"anti social behaviour","street":"On or near Hartland Drive","outcome":null,"month":"2026-04"}},{"type":"Feature","geometry":{"type":"Point","coordinates":[-1.42104,53.420552]},"properties":{"category":"anti social behaviour","street":"On or near Prestwich Street","outcome":null,"month":"2026-04"}},{"type":"Feature","geometry":{"type":"Point","coordinates":[-1.422266,53.343354]},"properties":{"category":"anti social behaviour","street":"On or near Blossom Crescent","outcome":null,"month":"2026-04"}},{"type":"Feature","geometry":{"type":"Point","coordinates":[-1.431509,53.360989]},"properties":{"category":"anti social behaviour","street":"On or near Dagnam Drive","outcome":null,"month":"2026-04"}},{"type":"Feature","geometry":{"type":"Point","coordinates":[-1.441931,53.339582]},"properties":{"category":"anti social behaviour","street":"On or near Sandby Drive","outcome":null,"month":"2026-04"}},{"type":"Feature","geometry":{"type":"Point","coordinates":[-1.444988,53.417636]},"properties":{"category":"anti social behaviour","street":"On or near Firth Park Crescent","outcome":null,"month":"2026-04"}},{"type":"Feature","geometry":{"type":"Point","coordinates":[-1.459466,53.390017]},"properties":{"category":"anti social behaviour","street":"On or near Spital Hill","outcome":null,"month":"2026-04"}},{"type":"Feature","geometry":{"type":"Point","coordinates":[-1.463147,53.360335]},"properties":{"category":"anti social behaviour","street":"On or near Heeley Green","outcome":null,"month":"2026-04"}},{"type":"Feature","geometry":{"type":"Point","coordinates":[-1.481102,53.362896]},"properties":{"category":"anti social behaviour","street":"On or near Steade Road","outcome":null,"month":"2026-04"}},{"type":"Feature","geometry":{"type":"Point","coordinates":[-1.482802,53.382651]},"properties":{"category":"anti social behaviour","street":"On or near Brook Lane","outcome":null,"month":"2026-04"}},{"type":"Feature","geometry":{"type":"Point","coordinates":[-1.484436,53.386739]},"properties":{"category":"anti social behaviour","street":"On or near Bellefield Street","outcome":null,"month":"2026-04"}},{"type":"Feature","geometry":{"type":"Point","coordinates":[-1.487939,53.37044]},"properties":{"category":"anti social behaviour","street":"On or near Sawdon Road","outcome":null,"month":"2026-04"}},{"type":"Feature","geometry":{"type":"Point","coordinates":[-1.490216,53.387465]},"properties":{"category":"anti social behaviour","street":"On or near Albion Street","outcome":null,"month":"2026-04"}},{"type":"Feature","geometry":{"type":"Point","coordinates":[-1.491071,53.386399]},"properties":{"category":"anti social behaviour","street":"On or near Tay Street","outcome":null,"month":"2026-04"}},{"type":"Feature","geometry":{"type":"Point","coordinates":[-1.494002,53.394025]},"properties":{"category":"anti social behaviour","street":"On or near Whitehouse Road","outcome":null,"month":"2026-04"}},{"type":"Feature","geometry":{"type":"Point","coordinates":[-1.496867,53.392104]},"properties":{"category":"anti social behaviour","street":"On or near Walkley Street","outcome":null,"month":"2026-04"}},{"type":"Feature","geometry":{"type":"Point","coordinates":[-1.501621,53.415108]},"properties":{"category":"anti social behaviour","street":"On or near Petrol Station","outcome":null,"month":"2026-04"}},{"type":"Feature","geometry":{"type":"Point","coordinates":[-1.507955,53.385339]},"properties":{"category":"anti social behaviour","street":"On or near Supermarket","outcome":null,"month":"2026-04"}},{"type":"Feature","geometry":{"type":"Point","coordinates":[-1.524744,53.371985]},"properties":{"category":"anti social behaviour","street":"On or near Ranmoor Road","outcome":null,"month":"2026-04"}},{"type":"Feature","geometry":{"type":"Point","coordinates":[-1.475319,53.379832]},"properties":{"category":"anti social behaviour","street":"On or near Rockingham Street","outcome":null,"month":"2026-04"}},{"type":"Feature","geometry":{"type":"Point","coordinates":[-1.510852,53.360585]},"properties":{"category":"anti social behaviour","street":"On or near Glenalmond Road","outcome":null,"month":"2026-04"}},{"type":"Feature","geometry":{"type":"Point","coordinates":[-1.52015,53.403697]},"properties":{"category":"anti social behaviour","street":"On or near Studfield Crescent","outcome":null,"month":"2026-04"}},{"type":"Feature","geometry":{"type":"Point","coordinates":[-1.529738,53.38938]},"properties":{"category":"anti social behaviour","street":"On or near Onchan Road","outcome":null,"month":"2026-04"}},{"type":"Feature","geometry":{"type":"Point","coordinates":[-1.416761,53.364801]},"properties":{"category":"anti social behaviour","street":"On or near Woodrove Close","outcome":null,"month":"2026-04"}},{"type":"Feature","geometry":{"type":"Point","coordinates":[-1.491567,53.390176]},"properties":{"category":"anti social behaviour","street":"On or near Birkendale Road","outcome":null,"month":"2026-04"}},{"type":"Feature","geometry":{"type":"Point","coordinates":[-1.492913,53.393355]},"properties":{"category":"anti social behaviour","street":"On or near Burgoyne Road","outcome":null,"month":"2026-04"}},{"type":"Feature","geometry":{"type":"Point","coordinates":[-1.4214,53.342981]},"properties":{"category":"anti social behaviour","street":"On or near Supermarket","outcome":null,"month":"2026-04"}},{"type":"Feature","geometry":{"type":"Point","coordinates":[-1.440377,53.372294]},"properties":{"category":"anti social behaviour","street":"On or near Dovercourt Road","outcome":null,"month":"2026-04"}},{"type":"Feature","geometry":{"type":"Point","coordinates":[-1.44352,53.409027]},"properties":{"category":"anti social behaviour","street":"On or near Hinde Street","outcome":null,"month":"2026-04"}},{"type":"Feature","geometry":{"type":"Point","coordinates":[-1.347638,53.437378]},"properties":{"category":"anti social behaviour","street":"On or near Hatherley Road","outcome":null,"month":"2026-04"}},{"type":"Feature","geometry":{"type":"Point","coordinates":[-1.445547,53.357235]},"properties":{"category":"anti social behaviour","street":"On or near Daresbury View","outcome":null,"month":"2026-04"}},{"type":"Feature","geometry":{"type":"Point","coordinates":[-1.451295,53.433818]},"properties":{"category":"anti social behaviour","street":"On or near Perkyn Road","outcome":null,"month":"2026-04"}},{"type":"Feature","geometry":{"type":"Point","coordinates":[-1.472149,53.371189]},"properties":{"category":"anti social behaviour","street":"On or near Petrol Station","outcome":null,"month":"2026-04"}},{"type":"Feature","geometry":{"type":"Point","coordinates":[-1.447346,53.4098]},"properties":{"category":"anti social behaviour","street":"On or near Bolsover Road East","outcome":null,"month":"2026-04"}},{"type":"Feature","geometry":{"type":"Point","coordinates":[-1.330086,53.339645]},"properties":{"category":"anti social behaviour","street":"On or near Meadow Gate Avenue","outcome":null,"month":"2026-04"}},{"type":"Feature","geometry":{"type":"Point","coordinates":[-1.310449,53.443132]},"properties":{"category":"anti social behaviour","street":"On or near Sports/recreation Area","outcome":null,"month":"2026-04"}},{"type":"Feature","geometry":{"type":"Point","coordinates":[-1.457554,53.426925]},"properties":{"category":"anti social behaviour","street":"On or near Parking Area","outcome":null,"month":"2026-04"}},{"type":"Feature","geometry":{"type":"Point","coordinates":[-1.328363,53.43301]},"properties":{"category":"anti social behaviour","street":"On or near Alpha Road","outcome":null,"month":"2026-04"}},{"type":"Feature","geometry":{"type":"Point","coordinates":[-1.458953,53.438824]},"properties":{"category":"anti social behaviour","street":"On or near Town Fields Avenue","outcome":null,"month":"2026-04"}},{"type":"Feature","geometry":{"type":"Point","coordinates":[-1.466381,53.382912]},"properties":{"category":"anti social behaviour","street":"On or near High Street","outcome":null,"month":"2026-04"}},{"type":"Feature","geometry":{"type":"Point","coordinates":[-1.46968,53.401758]},"properties":{"category":"anti social behaviour","street":"On or near High View","outcome":null,"month":"2026-04"}},{"type":"Feature","geometry":{"type":"Point","coordinates":[-1.471107,53.434664]},"properties":{"category":"anti social behaviour","street":"On or near Sports/recreation Area","outcome":null,"month":"2026-04"}},{"type":"Feature","geometry":{"type":"Point","coordinates":[-1.471868,53.410936]},"properties":{"category":"anti social behaviour","street":"On or near Busk Park","outcome":null,"month":"2026-04"}},{"type":"Feature","geometry":{"type":"Point","coordinates":[-1.351147,53.34189]},"properties":{"category":"anti social behaviour","street":"On or near Shopping Area","outcome":null,"month":"2026-04"}},{"type":"Feature","geometry":{"type":"Point","coordinates":[-1.472553,53.382328]},"properties":{"category":"anti social behaviour","street":"On or near Pinfold Street","outcome":null,"month":"2026-04"}},{"type":"Feature","geometry":{"type":"Point","coordinates":[-1.476619,53.417303]},"properties":{"category":"anti social behaviour","street":"On or near Southey Place","outcome":null,"month":"2026-04"}},{"type":"Feature","geometry":{"type":"Point","coordinates":[-1.481102,53.362896]},"properties":{"category":"anti social behaviour","street":"On or near Steade Road","outcome":null,"month":"2026-04"}},{"type":"Feature","geometry":{"type":"Point","coordinates":[-1.479973,53.361812]},"properties":{"category":"anti social behaviour","street":"On or near Brookefield Yard","outcome":null,"month":"2026-04"}},{"type":"Feature","geometry":{"type":"Point","coordinates":[-1.488818,53.387414]},"properties":{"category":"anti social behaviour","street":"On or near Oxford Street","outcome":null,"month":"2026-04"}},{"type":"Feature","geometry":{"type":"Point","coordinates":[-1.31418,53.325667]},"properties":{"category":"anti social behaviour","street":"On or near Nethermoor Avenue","outcome":null,"month":"2026-04"}},{"type":"Feature","geometry":{"type":"Point","coordinates":[-1.490216,53.387465]},"properties":{"category":"anti social behaviour","street":"On or near Albion Street","outcome":null,"month":"2026-04"}},{"type":"Feature","geometry":{"type":"Point","coordinates":[-1.491312,53.387587]},"properties":{"category":"anti social behaviour","street":"On or near Crookesmoor Drive","outcome":null,"month":"2026-04"}},{"type":"Feature","geometry":{"type":"Point","coordinates":[-1.494218,53.352938]},"properties":{"category":"anti social behaviour","street":"On or near Glentilt Road","outcome":null,"month":"2026-04"}},{"type":"Feature","geometry":{"type":"Point","coordinates":[-1.498799,53.401721]},"properties":{"category":"anti social behaviour","street":"On or near Hillsborough Interchange","outcome":null,"month":"2026-04"}},{"type":"Feature","geometry":{"type":"Point","coordinates":[-1.501587,53.383252]},"properties":{"category":"anti social behaviour","street":"On or near Glebe Road","outcome":null,"month":"2026-04"}},{"type":"Feature","geometry":{"type":"Point","coordinates":[-1.476331,53.368475]},"properties":{"category":"anti social behaviour","street":"On or near Grosvenor Square","outcome":null,"month":"2026-04"}},{"type":"Feature","geometry":{"type":"Point","coordinates":[-1.390997,53.428519]},"properties":{"category":"anti social behaviour","street":"On or near Edale Road","outcome":null,"month":"2026-04"}},{"type":"Feature","geometry":{"type":"Point","coordinates":[-1.377665,53.346896]},"properties":{"category":"anti social behaviour","street":"On or near Four Wells Drive","outcome":null,"month":"2026-04"}},{"type":"Feature","geometry":{"type":"Point","coordinates":[-1.506483,53.370698]},"properties":{"category":"anti social behaviour","street":"On or near The Glen","outcome":null,"month":"2026-04"}},{"type":"Feature","geometry":{"type":"Point","coordinates":[-1.351757,53.435746]},"properties":{"category":"anti social behaviour","street":"On or near Shaftesbury Square","outcome":null,"month":"2026-04"}},{"type":"Feature","geometry":{"type":"Point","coordinates":[-1.513227,53.351274]},"properties":{"category":"anti social behaviour","street":"On or near Silverdale Glade","outcome":null,"month":"2026-04"}},{"type":"Feature","geometry":{"type":"Point","coordinates":[-1.358107,53.415871]},"properties":{"category":"anti social behaviour","street":"On or near Oak Tree Court","outcome":null,"month":"2026-04"}},{"type":"Feature","geometry":{"type":"Point","coordinates":[-1.528205,53.355343]},"properties":{"category":"anti social behaviour","street":"On or near Latham Square","outcome":null,"month":"2026-04"}},{"type":"Feature","geometry":{"type":"Point","coordinates":[-1.370099,53.432123]},"properties":{"category":"anti social behaviour","street":"On or near St John's Avenue","outcome":null,"month":"2026-04"}},{"type":"Feature","geometry":{"type":"Point","coordinates":[-1.526828,53.391508]},"properties":{"category":"anti social behaviour","street":"On or near Roscoe Mount","outcome":null,"month":"2026-04"}},{"type":"Feature","geometry":{"type":"Point","coordinates":[-1.528008,53.405795]},