{"type":"FeatureCollection","features":[{"type":"Feature","geometry":{"type":"Point","coordinates":[-1.4613023,53.3778655]},"properties":{"name":"Sheffield Station / Sheffield Hallam University"}},{"type":"Feature","geometry":{"type":"Point","coordinates":[-1.4732516,53.3815369]},"properties":{"name":"City Hall"}},{"type":"Feature","geometry":{"type":"Point","coordinates":[-1.4998699,53.4020052]},"properties":{"name":"Hillsborough"}},{"type":"Feature","geometry":{"type":"Point","coordinates":[-1.4825657,53.384765]},"properties":{"name":"Netherthorpe Road"}},{"type":"Feature","geometry":{"type":"Point","coordinates":[-1.4779651,53.3886571]},"properties":{"name":"Shalesmoor"}},{"type":"Feature","geometry":{"type":"Point","coordinates":[-1.4840882,53.3806756]},"properties":{"name":"University of Sheffield"}},{"type":"Feature","geometry":{"type":"Point","coordinates":[-1.4611747,53.3737784]},"properties":{"name":"Granville Road / The Sheffield College"}},{"type":"Feature","geometry":{"type":"Point","coordinates":[-1.4585722,53.3701143]},"properties":{"name":"Park Grange Croft"}},{"type":"Feature","geometry":{"type":"Point","coordinates":[-1.4548382,53.3673026]},"properties":{"name":"Park Grange"}},{"type":"Feature","geometry":{"type":"Point","coordinates":[-1.4484068,53.3634654]},"properties":{"name":"Arbourthorne Road"}},{"type":"Feature","geometry":{"type":"Point","coordinates":[-1.4476179,53.3634096]},"properties":{"name":"Arbourthorne Road"}},{"type":"Feature","geometry":{"type":"Point","coordinates":[-1.4284608,53.3597921]},"properties":{"name":"Manor Top / Elm Tree"}},{"type":"Feature","geometry":{"type":"Point","coordinates":[-1.3993742,53.3404161]},"properties":{"name":"Birley Lane"}},{"type":"Feature","geometry":{"type":"Point","coordinates":[-1.3886767,53.3416197]},"properties":{"name":"Birley Moor Road"}},{"type":"Feature","geometry":{"type":"Point","coordinates":[-1.3810491,53.3436065]},"properties":{"name":"Hackenthorpe"}},{"type":"Feature","geometry":{"type":"Point","coordinates":[-1.3703544,53.3417546]},"properties":{"name":"Donetsk Way"}},{"type":"Feature","geometry":{"type":"Point","coordinates":[-1.3626591,53.3421931]},"properties":{"name":"Moss Way"}},{"type":"Feature","geometry":{"type":"Point","coordinates":[-1.3561161,53.3417101]},"properties":{"name":"Crystal Peaks"}},{"type":"Feature","geometry":{"type":"Point","coordinates":[-1.3475239,53.3417146]},"properties":{"name":"Beighton / Drake House Lane"}},{"type":"Feature","geometry":{"type":"Point","coordinates":[-1.3450322,53.3364716]},"properties":{"name":"Waterthorpe"}},{"type":"Feature","geometry":{"type":"Point","coordinates":[-1.3442988,53.3285388]},"properties":{"name":"Halfway"}},{"type":"Feature","geometry":{"type":"Point","coordinates":[-1.3438093,53.3318329]},"properties":{"name":"Westfield"}},{"type":"Feature","geometry":{"type":"Point","coordinates":[-1.438774,53.3663058]},"properties":{"name":"Spring Lane"}},{"type":"Feature","geometry":{"type":"Point","coordinates":[-1.4776666,53.3804854]},"properties":{"name":"West Street"}},{"type":"Feature","geometry":{"type":"Point","coordinates":[-1.4660665,53.3831113]},"properties":{"name":"Castle Square"}},{"type":"Feature","geometry":{"type":"Point","coordinates":[-1.4638794,53.3831978]},"properties":{"name":"Fitzalan Square / Ponds Forge"}},{"type":"Feature","geometry":{"type":"Point","coordinates":[-1.4524215,53.3846431]},"properties":{"name":"Hyde Park"}},{"type":"Feature","geometry":{"type":"Point","coordinates":[-1.4466132,53.3840333]},"properties":{"name":"Cricket Inn Road"}},{"type":"Feature","geometry":{"type":"Point","coordinates":[-1.4346076,53.3888526]},"properties":{"name":"Woodbourn Road"}},{"type":"Feature","geometry":{"type":"Point","coordinates":[-1.4299961,53.3923265]},"properties":{"name":"Attercliffe"}},{"type":"Feature","geometry":{"type":"Point","coordinates":[-1.4205494,53.398208]},"properties":{"name":"Arena / Olympic Legacy Park"}},{"type":"Feature","geometry":{"type":"Point","coordinates":[-1.4127215,53.4022139]},"properties":{"name":"Valley Centertainment"}},{"type":"Feature","geometry":{"type":"Point","coordinates":[-1.4130421,53.4171529]},"properties":{"name":"Meadowhall Interchange"}},{"type":"Feature","geometry":{"type":"Point","coordinates":[-1.4050262,53.4142424]},"properties":{"name":"Meadowhall South / Tinsley"}},{"type":"Feature","geometry":{"type":"Point","coordinates":[-1.4109114,53.4055205]},"properties":{"name":"Carbrook/Ikea"}},{"type":"Feature","geometry":{"type":"Point","coordinates":[-1.5101523,53.4158805]},"properties":{"name":"Middlewood"}},{"type":"Feature","geometry":{"type":"Point","coordinates":[-1.4324251,53.3424735]},"properties":{"name":"Herdings / Leighton Road"}},{"type":"Feature","geometry":{"type":"Point","coordinates":[-1.4392481,53.3425086]},"properties":{"name":"Herdings Park"}},{"type":"Feature","geometry":{"type":"Point","coordinates":[-1.4288524,53.359664]},"properties":{"name":"Manor Top / Elm Tree"}},{"type":"Feature","geometry":{"type":"Point","coordinates":[-1.5082244,53.4007]},"properties":{"name":"Malin Bridge"}},{"type":"Feature","geometry":{"type":"Point","coordinates":[-1.4131385,53.4171859]},"properties":{"name":"Meadowhall Interchange"}},{"type":"Feature","geometry":{"type":"Point","coordinates":[-1.4690486,53.3826108]},"properties":{"name":"Cathedral"}},{"type":"Feature","geometry":{"type":"Point","coordinates":[-1.4417611,53.3855242]},"properties":{"name":"Nunnery Square"}},{"type":"Feature","geometry":{"type":"Point","coordinates":[-1.4824761,53.3847197]},"properties":{"name":"Netherthorpe Road"}},{"type":"Feature","geometry":{"type":"Point","coordinates":[-1.4779063,53.388647]},"properties":{"name":"Shalesmoor"}},{"type":"Feature","geometry":{"type":"Point","coordinates":[-1.4840345,53.3806759]},"properties":{"name":"University of Sheffield"}},{"type":"Feature","geometry":{"type":"Point","coordinates":[-1.4769757,53.3806718]},"properties":{"name":"West Street"}},{"type":"Feature","geometry":{"type":"Point","coordinates":[-1.4723495,53.382048]},"properties":{"name":"City Hall"}},{"type":"Feature","geometry":{"type":"Point","coordinates":[-1.3615429,53.4310271]},"properties":{"name":"Rotherham Central"}},{"type":"Feature","geometry":{"type":"Point","coordinates":[-1.4258692,53.3460998]},"properties":{"name":"Gleadless Townend"}},{"type":"Feature","geometry":{"type":"Point","coordinates":[-1.4614877,53.3750278]},"properties":{"name":"Granville Road / The Sheffield College"}},{"type":"Feature","geometry":{"type":"Point","coordinates":[-1.4324545,53.3424477]},"properties":{"name":"Herdings / Leighton Road"}},{"type":"Feature","geometry":{"type":"Point","coordinates":[-1.4999422,53.401967]},"properties":{"name":"Hillsborough"}},{"type":"Feature","geometry":{"type":"Point","coordinates":[-1.4551727,53.367003]},"properties":{"name":"Park Grange"}},{"type":"Feature","geometry":{"type":"Point","coordinates":[-1.4198039,53.3430841]},"properties":{"name":"White Lane"}},{"type":"Feature","geometry":{"type":"Point","coordinates":[-1.4049811,53.4142433]},"properties":{"name":"Meadowhall South / Tinsley"}},{"type":"Feature","geometry":{"type":"Point","coordinates":[-1.4108794,53.4055103]},"properties":{"name":"Carbrook/IKEA"}},{"type":"Feature","geometry":{"type":"Point","coordinates":[-1.4126812,53.4022055]},"properties":{"name":"Valley Centertainment"}},{"type":"Feature","geometry":{"type":"Point","coordinates":[-1.4345597,53.388846]},"properties":{"name":"Woodbourn Road"}},{"type":"Feature","geometry":{"type":"Point","coordinates":[-1.4417625,53.3854966]},"properties":{"name":"Nunnery Square"}},{"type":"Feature","geometry":{"type":"Point","coordinates":[-1.4466103,53.3840084]},"properties":{"name":"Cricket Inn Road"}},{"type":"Feature","geometry":{"type":"Point","coordinates":[-1.4524283,53.3846199]},"properties":{"name":"Hyde Park"}},{"type":"Feature","geometry":{"type":"Point","coordinates":[-1.4205261,53.3981882]},"properties":{"name":"Arena / Olympic Legacy Park"}},{"type":"Feature","geometry":{"type":"Point","coordinates":[-1.4638866,53.3831668]},"properties":{"name":"Fitzalan Square / Ponds Forge"}},{"type":"Feature","geometry":{"type":"Point","coordinates":[-1.4660539,53.3830762]},"properties":{"name":"Castle Square"}},{"type":"Feature","geometry":{"type":"Point","coordinates":[-1.4690465,53.3825752]},"properties":{"name":"Cathedral"}},{"type":"Feature","geometry":{"type":"Point","coordinates":[-1.4612407,53.3778615]},"properties":{"name":"Sheffield Station / Sheffield Hallam University"}},{"type":"Feature","geometry":{"type":"Point","coordinates":[-1.4299842,53.3922963]},"properties":{"name":"Attercliffe"}},{"type":"Feature","geometry":{"type":"Point","coordinates":[-1.3615052,53.4310198]},"properties":{"name":"Rotherham Central"}},{"type":"Feature","geometry":{"type":"Point","coordinates":[-1.4258262,53.3460848]},"properties":{"name":"Gleadless Townend"}},{"type":"Feature","geometry":{"type":"Point","coordinates":[-1.4244971,53.3520387]},"properties":{"name":"Hollinsend"}},{"type":"Feature","geometry":{"type":"Point","coordinates":[-1.4245537,53.3520359]},"properties":{"name":"Hollinsend"}},{"type":"Feature","geometry":{"type":"Point","coordinates":[-1.3703402,53.3417214]},"properties":{"name":"Donetsk Way"}},{"type":"Feature","geometry":{"type":"Point","coordinates":[-1.3626703,53.3421624]},"properties":{"name":"Moss Way"}},{"type":"Feature","geometry":{"type":"Point","coordinates":[-1.3561181,53.3416837]},"properties":{"name":"Crystal Peaks"}},{"type":"Feature","geometry":{"type":"Point","coordinates":[-1.3450876,53.3364708]},"properties":{"name":"Waterthorpe"}},{"type":"Feature","geometry":{"type":"Point","coordinates":[-1.3474827,53.3416901]},"properties":{"name":"Beighton / Drake House Lane"}},{"type":"Feature","geometry":{"type":"Point","coordinates":[-1.3438627,53.3319047]},"properties":{"name":"Westfield"}},{"type":"Feature","geometry":{"type":"Point","coordinates":[-1.3810524,53.3435738]},"properties":{"name":"Hackenthorpe"}},{"type":"Feature","geometry":{"type":"Point","coordinates":[-1.3886532,53.34159]},"properties":{"name":"Birley Moor Road"}},{"type":"Feature","geometry":{"type":"Point","coordinates":[-1.3993588,53.3403868]},"properties":{"name":"Birley Lane"}},{"type":"Feature","geometry":{"type":"Point","coordinates":[-1.4198192,53.3430388]},"properties":{"name":"White Lane"}},{"type":"Feature","geometry":{"type":"Point","coordinates":[-1.4387379,53.3662636]},"properties":{"name":"Spring Lane"}},{"type":"Feature","geometry":{"type":"Point","coordinates":[-1.4585329,53.3701337]},"properties":{"name":"Park Grange Croft"}},{"type":"Feature","geometry":{"type":"Point","coordinates":[-1.4925501,53.398923]},"properties":{"name":"Bamforth Street"}},{"type":"Feature","geometry":{"type":"Point","coordinates":[-1.4823759,53.3908311]},"properties":{"name":"Infirmary Road"}},{"type":"Feature","geometry":{"type":"Point","coordinates":[-1.5036651,53.4044049]},"properties":{"name":"Hillsborough Park"}},{"type":"Feature","geometry":{"type":"Point","coordinates":[-1.5043766,53.4108081]},"properties":{"name":"Leppings Lane"}},{"type":"Feature","geometry":{"type":"Point","coordinates":[-1.5040299,53.4096961]},"properties":{"name":"Leppings Lane"}},{"type":"Feature","geometry":{"type":"Point","coordinates":[-1.5036162,53.4044072]},"properties":{"name":"Hillsborough Park"}},{"type":"Feature","geometry":{"type":"Point","coordinates":[-1.4925729,53.3988722]},"properties":{"name":"Bamforth Street"}},{"type":"Feature","geometry":{"type":"Point","coordinates":[-1.4893006,53.3957684]},"properties":{"name":"Langsett / Primrose View"}},{"type":"Feature","geometry":{"type":"Point","coordinates":[-1.4893904,53.3957608]},"properties":{"name":"Langsett / Primrose View"}},{"type":"Feature","geometry":{"type":"Point","coordinates":[-1.4825642,53.3909677]},"properties":{"name":"Infirmary Road"}},{"type":"Feature","geometry":{"type":"Point","coordinates":[-1.3893267,53.4202015]},"properties":{"name":"Magna"}},{"type":"Feature","geometry":{"type":"Point","coordinates":[-1.3888664,53.420254]},"properties":{"name":"Magna"}}]}